$GPGGA,,,,,,0,00,,,,,,,*66
$GPVTG,,,,,,,,,N*30
$GPGGA,,,,,,0,00,,,,,,,*66
$GPVTG,,,,,,,,,N*30
$GPGGA,,,,,,0,00,,,,,,,*66
$GPVTG,,,,,,,,,N*30
$GPGGA,,,,,,0,00,,,,,,,*66
$GPVTG,,,,,,,,,N*30
$GPGGA,,,,,,0,00,,,,,,,*66
$GPVTG,,,,,,,,,N*30
$GPGGA,,,,,,0,00,,,,,,,*66
$GPVTG,,,,,,,,,N*30
$GPGGA,,,,,,0,00,,,,,,,*66
$GPVTG,,,,,,,,,N*30
$GPGGA,,,,,,0,00,,,,,,,*66
$GPVTG,,,,,,,,,N*30
$GPGGA,,,,,,0,00,,,,,,,*66
$GPVTG,,,,,,,,,N*30
$GPGGA,,,,,,0,01,,,,,,,*67
$GPVTG,,,,,,,,,N*30
$GPGGA,,,,,,0,01,,,,,,,*67
$GPVTG,,,,,,,,,N*30
$GPGGA,,,,,,0,01,,,,,,,*67
$GPVTG,,,,,,,,,N*30
$GPGGA,,,,,,0,01,,,,,,,*67
$GPVTG,,,,,,,,,N*30
$GPGGA,,,,,,0,01,,,,,,,*67
$GPVTG,,,,,,,,,N*30
$GPGGA,,,,,,0,01,,,,,,,*67
$GPVTG,,,,,,,,,N*30
$GPGGA,,,,,,0,01,,,,,,,*67
$GPVTG,,,,,,,,,N*30
$GPGGA,,,,,,0,01,,,,,,,*67
$GPVTG,,,,,,,,,N*30
$GPGGA,,,,,,0,01,,,,,,,*67
$GPVTG,,,,,,,,,N*30
$GPGGA,,,,,,0,01,,,,,,,*67
$GPVTG,,,,,,,,,N*30
$GPGGA,,,,,,0,01,,,,,,,*67
$GPVTG,,,,,,,,,N*30
$GPGGA,,,,,,0,02,,,,,,,*64
$GPVTG,,,,,,,,,N*30
$GPGGA,,,,,,0,02,,,,,,,*64
$GPVTG,,,,,,,,,N*30
$GPGGA,,,,,,0,02,,,,,,,*64
$GPVTG,,,,,,,,,N*30
$GPGGA,,,,,,0,02,,,,,,,*64
$GPVTG,,,,,,,,,N*30
$GPGGA,,,,,,0,02,,,,,,,*64
$GPVTG,,,,,,,,,N*30
$GPGGA,,,,,,0,02,,,,,,,*64
$GPVTG,,,,,,,,,N*30
$GPGGA,,,,,,0,02,,,,,,,*64
$GPVTG,,,,,,,,,N*30
$GPGGA,,,,,,0,02,,,,,,,*64
$GPVTG,,,,,,,,,N*30
$GPGGA,,,,,,0,02,,,,,,,*64
$GPVTG,,,,,,,,,N*30
$GPGGA,,,,,,0,02,,,,,,,*64
$GPVTG,,,,,,,,,N*30
$GPGGA,,,,,,0,02,,,,,,,*64
$GPVTG,,,,,,,,,N*30
$GPGGA,,,,,,0,02,,,,,,,*64
$GPVTG,,,,,,,,,N*30
$GPGGA,,,,,,0,02,,,,,,,*64
$GPVTG,,,,,,,,,N*30
$GPGGA,103523.00,5212.8177,N,00006.0264,E,1,03,3.58,-00047,M,047,M,,*41
$GPVTG,192.6,T,197.8,M,000.1,N,000.1,K,A*28
$GPGGA,103527.00,5212.8108,N,00006.0177,E,1,03,3.58,-00047,M,047,M,,*4C
$GPVTG,000.0,T,005.2,M,000.0,N,000.0,K,A*24
$GPGGA,103530.00,5212.8086,N,00006.0150,E,1,03,3.59,-00047,M,047,M,,*49
$GPVTG,000.0,T,005.2,M,000.0,N,000.0,K,A*24
$GPGGA,103532.00,5212.8081,N,00006.0145,E,1,03,3.60,-00047,M,047,M,,*42
$GPVTG,000.0,T,005.2,M,000.0,N,000.0,K,A*24
$GPGGA,103536.00,5212.8078,N,00006.0141,E,1,03,3.60,-00047,M,047,M,,*44
$GPVTG,000.0,T,005.2,M,000.0,N,000.0,K,A*24
$GPGGA,103541.00,5212.8075,N,00006.0139,E,1,03,3.61,-00047,M,047,M,,*47
$GPVTG,000.0,T,005.2,M,000.0,N,000.0,K,A*24
$GPGGA,103546.00,5212.8073,N,00006.0138,E,1,03,3.62,-00047,M,047,M,,*44
$GPVTG,000.0,T,005.2,M,000.0,N,000.0,K,A*24
$GPGGA,103609.00,5212.8364,N,00006.0307,E,1,05,2.65,00007,M,047,M,,*6E
$GPVTG,000.0,T,005.2,M,000.0,N,000.0,K,A*24
$GPGGA,103613.00,5212.8388,N,00006.0321,E,1,05,2.64,00011,M,047,M,,*65
$GPVTG,000.0,T,005.2,M,000.0,N,000.0,K,A*24
$GPGGA,103618.00,5212.8410,N,00006.0336,E,1,06,2.63,00016,M,047,M,,*6D
$GPVTG,000.0,T,005.2,M,000.0,N,000.0,K,A*24
$GPGGA,103623.00,5212.8427,N,00006.0346,E,1,06,2.62,00019,M,047,M,,*68
$GPVTG,000.0,T,005.2,M,000.0,N,000.0,K,A*24
$GPGGA,103625.00,5212.8432,N,00006.0350,E,1,06,2.62,00020,M,047,M,,*67
$GPVTG,000.0,T,005.2,M,000.0,N,000.0,K,A*24
$GPGGA,103629.00,5212.8440,N,00006.0355,E,1,06,2.62,00022,M,047,M,,*69
$GPVTG,000.0,T,005.2,M,000.0,N,000.0,K,A*24
$GPGGA,103634.00,5212.8447,N,00006.0360,E,1,06,2.62,00023,M,047,M,,*65
$GPVTG,000.0,T,005.2,M,000.0,N,000.0,K,A*24
$GPGGA,103639.00,5212.8451,N,00006.0363,E,1,06,2.62,00024,M,047,M,,*6B
$GPVTG,000.0,T,005.2,M,000.0,N,000.0,K,A*24
$GPGGA,103641.00,5212.8452,N,00006.0364,E,1,06,2.62,00024,M,047,M,,*60
$GPVTG,000.0,T,005.2,M,000.0,N,000.0,K,A*24
$GPGGA,103645.00,5212.8454,N,00006.0365,E,1,06,2.62,00024,M,047,M,,*63
$GPVTG,000.0,T,005.2,M,000.0,N,000.0,K,A*24
$GPGGA,103650.00,5212.8456,N,00006.0367,E,1,07,1.11,00024,M,047,M,,*61
$GPVTG,000.0,T,005.2,M,000.0,N,000.0,K,A*24
$GPGGA,103655.00,5212.8457,N,00006.0368,E,1,07,1.11,00025,M,047,M,,*6B
$GPVTG,000.0,T,005.2,M,000.0,N,000.0,K,A*24
$GPGGA,103657.00,5212.8457,N,00006.0369,E,1,07,1.11,00025,M,047,M,,*68
$GPVTG,000.0,T,005.2,M,000.0,N,000.0,K,A*24
$GPGGA,103701.00,5212.8458,N,00006.0369,E,1,07,1.11,00025,M,047,M,,*65
$GPVTG,000.0,T,005.2,M,000.0,N,000.0,K,A*24
$GPGGA,103706.00,5212.8459,N,00006.0370,E,1,06,1.31,00025,M,047,M,,*68
$GPVTG,000.0,T,005.2,M,000.0,N,000.0,K,A*24
$GPGGA,103711.00,5212.8459,N,00006.0370,E,1,07,1.11,00025,M,047,M,,*6D
$GPVTG,000.0,T,005.2,M,000.0,N,000.0,K,A*24
$GPGGA,103713.00,5212.8459,N,00006.0371,E,1,07,1.11,00025,M,047,M,,*6E
$GPVTG,000.0,T,005.2,M,000.0,N,000.0,K,A*24
$GPGGA,103717.00,5212.8459,N,00006.0371,E,1,07,1.11,00025,M,047,M,,*6A
$GPVTG,000.0,T,005.2,M,000.0,N,000.0,K,A*24
$GPGGA,103722.00,5212.8459,N,00006.0372,E,1,07,1.11,00025,M,047,M,,*6F
$GPVTG,000.0,T,005.2,M,000.0,N,000.0,K,A*24
$GPGGA,103727.00,5212.8458,N,00006.0372,E,1,07,1.11,00025,M,047,M,,*6B
$GPVTG,000.0,T,005.2,M,000.0,N,000.0,K,A*24
$GPGGA,103750.00,5212.8458,N,00006.0372,E,1,06,1.31,00025,M,047,M,,*68
$GPVTG,000.0,T,005.2,M,000.0,N,000.0,K,A*24
$GPGGA,103754.00,5212.8457,N,00006.0371,E,1,06,1.31,00025,M,047,M,,*60
$GPVTG,000.0,T,005.2,M,000.0,N,000.0,K,A*24
$GPGGA,103759.00,5212.8457,N,00006.0371,E,1,06,1.31,00024,M,047,M,,*6C
$GPVTG,000.0,T,005.2,M,000.0,N,000.0,K,A*24
$GPGGA,103804.00,5212.8457,N,00006.0371,E,1,06,1.31,00024,M,047,M,,*6B
$GPVTG,000.0,T,005.2,M,000.0,N,000.0,K,A*24
$GPGGA,103806.00,5212.8457,N,00006.0371,E,1,06,1.31,00024,M,047,M,,*69
$GPVTG,000.0,T,005.2,M,000.0,N,000.0,K,A*24
$GPGGA,103810.00,5212.8457,N,00006.0371,E,1,06,1.31,00024,M,047,M,,*6E
$GPVTG,000.0,T,005.2,M,000.0,N,000.0,K,A*24
$GPGGA,103815.00,5212.8457,N,00006.0371,E,1,06,1.31,00024,M,047,M,,*6B
$GPVTG,000.0,T,005.2,M,000.0,N,000.0,K,A*24
$GPGGA,103820.00,5212.8456,N,00006.0370,E,1,06,1.31,00024,M,047,M,,*6D
$GPVTG,000.0,T,005.2,M,000.0,N,000.0,K,A*24
$GPGGA,103822.00,5212.8456,N,00006.0370,E,1,06,1.31,00024,M,047,M,,*6F
$GPVTG,000.0,T,005.2,M,000.0,N,000.0,K,A*24
$GPGGA,103826.00,5212.8456,N,00006.0370,E,1,06,1.31,00024,M,047,M,,*6B
$GPVTG,000.0,T,005.2,M,000.0,N,000.0,K,A*24
$GPGGA,103831.00,5212.8456,N,00006.0370,E,1,06,1.31,00024,M,047,M,,*6D
$GPVTG,000.0,T,005.2,M,000.0,N,000.0,K,A*24
$GPGGA,103836.00,5212.8455,N,00006.0370,E,1,06,1.31,00024,M,047,M,,*69
$GPVTG,000.0,T,005.2,M,000.0,N,000.0,K,A*24
$GPGGA,103838.00,5212.8455,N,00006.0370,E,1,06,1.31,00024,M,047,M,,*67
$GPVTG,000.0,T,005.2,M,000.0,N,000.0,K,A*24
$GPGGA,103842.00,5212.8455,N,00006.0370,E,1,06,1.31,00024,M,047,M,,*6A
$GPVTG,000.0,T,005.2,M,000.0,N,000.0,K,A*24
$GPGGA,103847.00,5212.8455,N,00006.0370,E,1,06,1.31,00024,M,047,M,,*6F
$GPVTG,000.0,T,005.2,M,000.0,N,000.0,K,A*24
$GPGGA,103852.00,5212.8455,N,00006.0369,E,1,07,1.20,00023,M,047,M,,*65
$GPVTG,000.0,T,005.2,M,000.0,N,000.0,K,A*24
$GPGGA,103854.00,5212.8454,N,00006.0369,E,1,07,1.20,00023,M,047,M,,*62
$GPVTG,000.0,T,005.2,M,000.0,N,000.0,K,A*24
$GPGGA,103858.00,5212.8454,N,00006.0369,E,1,07,1.20,00023,M,047,M,,*6E
$GPVTG,000.0,T,005.2,M,000.0,N,000.0,K,A*24
$GPGGA,103903.00,5212.8454,N,00006.0368,E,1,07,1.20,00023,M,047,M,,*60
$GPVTG,000.0,T,005.2,M,000.0,N,000.0,K,A*24
$GPGGA,103908.00,5212.8453,N,00006.0368,E,1,07,1.20,00023,M,047,M,,*6C
$GPVTG,000.0,T,005.2,M,000.0,N,000.0,K,A*24
$GPGGA,103931.00,5212.8448,N,00006.0350,E,1,07,1.57,00019,M,047,M,,*6E
$GPVTG,000.0,T,005.2,M,000.0,N,000.0,K,A*24
$GPGGA,103935.00,5212.8444,N,00006.0343,E,1,07,1.57,00017,M,047,M,,*6A
$GPVTG,000.0,T,005.2,M,000.0,N,000.0,K,A*24
$GPGGA,103940.00,5212.8442,N,00006.0343,E,1,07,1.20,00017,M,047,M,,*6E
$GPVTG,000.0,T,005.2,M,000.0,N,000.0,K,A*24
$GPGGA,103945.00,5212.8441,N,00006.0344,E,1,07,1.57,00017,M,047,M,,*6F
$GPVTG,000.0,T,005.2,M,000.0,N,000.0,K,A*24
$GPGGA,103947.00,5212.8441,N,00006.0344,E,1,08,1.00,00017,M,047,M,,*60
$GPVTG,000.0,T,005.2,M,000.0,N,000.0,K,A*24
$GPGGA,103951.00,5212.8442,N,00006.0340,E,1,08,1.00,00016,M,047,M,,*61
$GPVTG,000.0,T,005.2,M,000.0,N,000.0,K,A*24
$GPGGA,103956.00,5212.8440,N,00006.0335,E,1,07,1.58,00015,M,047,M,,*67
$GPVTG,000.0,T,005.2,M,000.0,N,000.0,K,A*24
$GPGGA,104001.00,5212.8438,N,00006.0335,E,1,07,1.58,00015,M,047,M,,*64
$GPVTG,000.0,T,005.2,M,000.0,N,000.0,K,A*24
$GPGGA,104003.00,5212.8438,N,00006.0337,E,1,06,1.74,00015,M,047,M,,*6B
$GPVTG,000.0,T,005.2,M,000.0,N,000.0,K,A*24
$GPGGA,104007.00,5212.8437,N,00006.0336,E,1,07,1.58,00015,M,047,M,,*6E
$GPVTG,000.0,T,005.2,M,000.0,N,000.0,K,A*24
$GPGGA,104012.00,5212.8436,N,00006.0336,E,1,07,1.20,00015,M,047,M,,*64
$GPVTG,000.0,T,005.2,M,000.0,N,000.0,K,A*24
$GPGGA,104017.00,5212.8435,N,00006.0336,E,1,07,1.58,00014,M,047,M,,*6C
$GPVTG,000.0,T,005.2,M,000.0,N,000.0,K,A*24
$GPGGA,104019.00,5212.8435,N,00006.0335,E,1,07,1.58,00014,M,047,M,,*61
$GPVTG,000.0,T,005.2,M,000.0,N,000.0,K,A*24
$GPGGA,104023.00,5212.8435,N,00006.0335,E,1,08,1.00,00014,M,047,M,,*6A
$GPVTG,000.0,T,005.2,M,000.0,N,000.0,K,A*24
$GPGGA,104028.00,5212.8436,N,00006.0334,E,1,07,1.58,00014,M,047,M,,*61
$GPVTG,000.0,T,005.2,M,000.0,N,000.0,K,A*24
$GPGGA,104033.00,5212.8435,N,00006.0334,E,1,07,1.58,00014,M,047,M,,*68
$GPVTG,000.0,T,005.2,M,000.0,N,000.0,K,A*24
$GPGGA,104035.00,5212.8435,N,00006.0334,E,1,07,1.59,00014,M,047,M,,*6F
$GPVTG,000.0,T,005.2,M,000.0,N,000.0,K,A*24
$GPGGA,104039.00,5212.8435,N,00006.0334,E,1,07,1.59,00014,M,047,M,,*63
$GPVTG,000.0,T,005.2,M,000.0,N,000.0,K,A*24
$GPGGA,104044.00,5212.8435,N,00006.0335,E,1,07,1.59,00014,M,047,M,,*68
$GPVTG,000.0,T,005.2,M,000.0,N,000.0,K,A*24
$GPGGA,104049.00,5212.8435,N,00006.0337,E,1,07,1.21,00015,M,047,M,,*69
$GPVTG,000.0,T,005.2,M,000.0,N,000.0,K,A*24
$GPGGA,104112.00,5212.8435,N,00006.0341,E,1,07,1.21,00016,M,047,M,,*64
$GPVTG,000.0,T,005.2,M,000.0,N,000.0,K,A*24
$GPGGA,104116.00,5212.8435,N,00006.0341,E,1,06,1.76,00016,M,047,M,,*63
$GPVTG,000.0,T,005.2,M,000.0,N,000.0,K,A*24
$GPGGA,104121.00,5212.8435,N,00006.0342,E,1,07,1.59,00016,M,047,M,,*68
$GPVTG,000.0,T,005.2,M,000.0,N,000.0,K,A*24
$GPGGA,104126.00,5212.8435,N,00006.0342,E,1,07,1.60,00016,M,047,M,,*65
$GPVTG,000.0,T,005.2,M,000.0,N,000.0,K,A*24
$GPGGA,104128.00,5212.8435,N,00006.0343,E,1,08,1.01,00016,M,047,M,,*62
$GPVTG,000.0,T,005.2,M,000.0,N,000.0,K,A*24
$GPGGA,104132.00,5212.8435,N,00006.0343,E,1,07,1.60,00016,M,047,M,,*61
$GPVTG,000.0,T,005.2,M,000.0,N,000.0,K,A*24
$GPGGA,104137.00,5212.8435,N,00006.0344,E,1,08,1.01,00016,M,047,M,,*6B
$GPVTG,000.0,T,005.2,M,000.0,N,000.0,K,A*24
$GPGGA,104142.00,5212.8435,N,00006.0344,E,1,08,1.01,00016,M,047,M,,*69
$GPVTG,000.0,T,005.2,M,000.0,N,000.0,K,A*24
$GPGGA,104144.00,5212.8435,N,00006.0345,E,1,07,1.60,00016,M,047,M,,*66
$GPVTG,000.0,T,005.2,M,000.0,N,000.0,K,A*24
$GPGGA,104148.00,5212.8435,N,00006.0345,E,1,07,1.60,00016,M,047,M,,*6A
$GPVTG,000.0,T,005.2,M,000.0,N,000.0,K,A*24
$GPGGA,104153.00,5212.8436,N,00006.0346,E,1,08,1.01,00017,M,047,M,,*69
$GPVTG,000.0,T,005.2,M,000.0,N,000.0,K,A*24
$GPGGA,104158.00,5212.8436,N,00006.0346,E,1,06,1.77,00017,M,047,M,,*6D
$GPVTG,000.0,T,005.2,M,000.0,N,000.0,K,A*24
$GPGGA,104200.00,5212.8436,N,00006.0347,E,1,06,1.77,00017,M,047,M,,*62
$GPVTG,000.0,T,005.2,M,000.0,N,000.0,K,A*24
$GPGGA,104204.00,5212.8436,N,00006.0346,E,1,06,1.76,00017,M,047,M,,*66
$GPVTG,000.0,T,005.2,M,000.0,N,000.0,K,A*24
$GPGGA,104209.00,5212.8436,N,00006.0347,E,1,06,1.76,00017,M,047,M,,*6A
$GPVTG,000.0,T,005.2,M,000.0,N,000.0,K,A*24
$GPGGA,104214.00,5212.8436,N,00006.0348,E,1,07,1.61,00017,M,047,M,,*6E
$GPVTG,000.0,T,005.2,M,000.0,N,000.0,K,A*24
$GPGGA,104216.00,5212.8436,N,00006.0348,E,1,06,1.76,00017,M,047,M,,*6B
$GPVTG,000.0,T,005.2,M,000.0,N,000.0,K,A*24
$GPGGA,104220.00,5212.8436,N,00006.0348,E,1,07,1.61,00017,M,047,M,,*69
$GPVTG,000.0,T,005.2,M,000.0,N,000.0,K,A*24
$GPGGA,104225.00,5212.8436,N,00006.0349,E,1,07,1.61,00017,M,047,M,,*6D
$GPVTG,000.0,T,005.2,M,000.0,N,000.0,K,A*24
$GPGGA,104230.00,5212.8436,N,00006.0350,E,1,07,1.61,00017,M,047,M,,*61
$GPVTG,000.0,T,005.2,M,000.0,N,000.0,K,A*24
$GPGGA,,,,,,0,00,,,,,,,*66
$GPVTG,,,,,,,,,N*30
$GPGGA,,,,,,0,00,,,,,,,*66
$GPVTG,,,,,,,,,N*30
$GPGGA,,,,,,0,00,,,,,,,*66
$GPVTG,,,,,,,,,N*30
$GPGGA,,,,,,0,00,,,,,,,*66
$GPVTG,,,,,,,,,N*30
$GPGGA,,,,,,0,00,,,,,,,*66
$GPVTG,,,,,,,,,N*30
$GPGGA,,,,,,0,00,,,,,,,*66
$GPVTG,,,,,,,,,N*30
$GPGGA,,,,,,0,00,,,,,,,*66
$GPVTG,,,,,,,,,N*30
$GPGGA,,,,,,0,00,,,,,,,*66
$GPVTG,,,,,,,,,N*30
$GPGGA,,,,,,0,00,,,,,,,*66
$GPVTG,,,,,,,,,N*30
$GPGGA,,,,,,0,00,,,,,,,*66
$GPVTG,,,,,,,,,N*30
$GPGGA,,,,,,0,00,,,,,,,*66
$GPVTG,,,,,,,,,N*30
$GPGGA,,,,,,0,00,,,,,,,*66
$GPVTG,,,,,,,,,N*30
$GPGGA,,,,,,0,00,,,,,,,*66
$GPVTG,,,,,,,,,N*30
$GPGGA,,,,,,0,00,,,,,,,*66
$GPVTG,,,,,,,,,N*30
$GPGGA,,,,,,0,00,,,,,,,*66
$GPVTG,,,,,,,,,N*30
$GPGGA,,,,,,0,00,,,,,,,*66
$GPVTG,,,,,,,,,N*30
$GPGGA,,,,,,0,00,,,,,,,*66
$GPVTG,,,,,,,,,N*30
$GPGGA,,,,,,0,00,,,,,,,*66
$GPVTG,,,,,,,,,N*30
$GPGGA,,,,,,0,01,,,,,,,*67
$GPVTG,,,,,,,,,N*30
$GPGGA,,,,,,0,01,,,,,,,*67
$GPVTG,,,,,,,,,N*30
$GPGGA,,,,,,0,02,,,,,,,*64
$GPVTG,,,,,,,,,N*30
$GPGGA,,,,,,0,02,,,,,,,*64
$GPVTG,,,,,,,,,N*30
$GPGGA,,,,,,0,02,,,,,,,*64
$GPVTG,,,,,,,,,N*30
$GPGGA,,,,,,0,02,,,,,,,*64
$GPVTG,,,,,,,,,N*30
$GPGGA,,,,,,0,02,,,,,,,*64
$GPVTG,,,,,,,,,N*30
$GPGGA,,,,,,0,01,,,,,,,*67
$GPVTG,,,,,,,,,N*30
$GPGGA,,,,,,0,03,,,,,,,*65
$GPVTG,,,,,,,,,N*30
$GPGGA,,,,,,0,03,,,,,,,*65
$GPVTG,186.6,T,191.8,M,000.5,N,000.9,K,A*27
$GPGGA,105119.00,5212.7710,N,00006.0058,E,1,03,11.1,-00047,M,047,M,,*40
$GPVTG,000.0,T,005.2,M,000.0,N,000.0,K,A*24
$GPGGA,105123.00,5212.7699,N,00006.0048,E,1,03,11.1,-00047,M,047,M,,*48
$GPVTG,000.0,T,005.2,M,000.0,N,000.0,K,A*24
$GPGGA,105128.00,5212.7681,N,00006.0035,E,1,03,11.3,-00047,M,047,M,,*42
$GPVTG,000.0,T,005.2,M,000.0,N,000.0,K,A*24
$GPGGA,105133.00,5212.7678,N,00006.0034,E,1,03,11.3,-00047,M,047,M,,*4F
$GPVTG,000.0,T,005.2,M,000.0,N,000.0,K,A*24
$GPGGA,105135.00,5212.7675,N,00006.0033,E,1,03,11.4,-00047,M,047,M,,*44
$GPVTG,000.0,T,005.2,M,000.0,N,000.0,K,A*24
$GPGGA,105139.00,5212.7805,N,00006.0086,E,1,04,2.39,-00034,M,047,M,,*40
$GPVTG,000.0,T,005.2,M,000.0,N,000.0,K,A*24
$GPGGA,105144.00,5212.7976,N,00006.0156,E,1,04,2.39,-00018,M,047,M,,*4D
$GPVTG,000.0,T,005.2,M,000.0,N,000.0,K,A*24
$GPGGA,105149.00,5212.8100,N,00006.0207,E,1,04,2.39,-00007,M,047,M,,*4F
$GPVTG,000.0,T,005.2,M,000.0,N,000.0,K,A*24
$GPGGA,105151.00,5212.8139,N,00006.0223,E,1,04,2.39,-00003,M,047,M,,*4E
$GPVTG,000.0,T,005.2,M,000.0,N,000.0,K,A*24
$GPGGA,105154.0,,,,,0,02,,,,,,,*7E
$GPVTG,000.0,T,005.2,M,000.0,N,000.0,K,A*24
$GPGGA,105157.0,,,,,0,01,,,,,,,*7E
$GPVTG,,,,,,,,,N*30
$GPGGA,105204.00,5212.8240,N,00006.0264,E,1,03,2.91,00005,M,047,M,,*6D
$GPVTG,000.0,T,005.2,M,000.0,N,000.0,K,A*24
$GPGGA,105227.00,5212.8367,N,00006.0312,E,1,05,2.34,00018,M,047,M,,*6D
$GPVTG,298.3,T,303.5,M,001.2,N,002.2,K,A*25
$GPGGA,105231.00,5212.8395,N,00006.0319,E,1,05,2.35,00021,M,047,M,,*67
$GPVTG,000.0,T,005.2,M,000.0,N,000.0,K,A*24
$GPGGA,105236.00,5212.8411,N,00006.0325,E,1,05,2.35,00022,M,047,M,,*67
$GPVTG,000.0,T,005.2,M,000.0,N,000.0,K,A*24
$GPGGA,105241.00,5212.8413,N,00006.0326,E,1,05,2.35,00022,M,047,M,,*66
$GPVTG,000.0,T,005.2,M,000.0,N,000.0,K,A*24
$GPGGA,105243.00,5212.8414,N,00006.0326,E,1,05,2.35,00021,M,047,M,,*60
$GPVTG,000.0,T,005.2,M,000.0,N,000.0,K,A*24
$GPGGA,105247.00,5212.8414,N,00006.0326,E,1,05,2.35,00021,M,047,M,,*64
$GPVTG,000.0,T,005.2,M,000.0,N,000.0,K,A*24
$GPGGA,105252.00,5212.8414,N,00006.0326,E,1,05,2.36,00021,M,047,M,,*63
$GPVTG,000.0,T,005.2,M,000.0,N,000.0,K,A*24
$GPGGA,105257.00,5212.8414,N,00006.0326,E,1,05,2.36,00021,M,047,M,,*66
$GPVTG,000.0,T,005.2,M,000.0,N,000.0,K,A*24
$GPGGA,105259.00,5212.8414,N,00006.0326,E,1,05,2.36,00021,M,047,M,,*68
$GPVTG,000.0,T,005.2,M,000.0,N,000.0,K,A*24
$GPGGA,105303.00,5212.8413,N,00006.0326,E,1,04,2.44,00021,M,047,M,,*65
$GPVTG,000.0,T,005.2,M,000.0,N,000.0,K,A*24
$GPGGA,105308.00,5212.8413,N,00006.0326,E,1,05,2.36,00021,M,047,M,,*6A
$GPVTG,000.0,T,005.2,M,000.0,N,000.0,K,A*24
$GPGGA,105313.00,5212.8413,N,00006.0326,E,1,05,2.37,00020,M,047,M,,*60
$GPVTG,000.0,T,005.2,M,000.0,N,000.0,K,A*24
$GPGGA,105315.00,5212.8413,N,00006.0326,E,1,05,2.37,00020,M,047,M,,*66
$GPVTG,000.0,T,005.2,M,000.0,N,000.0,K,A*24
$GPGGA,105319.00,5212.8413,N,00006.0326,E,1,05,2.37,00020,M,047,M,,*6A
$GPVTG,000.0,T,005.2,M,000.0,N,000.0,K,A*24
$GPGGA,105324.00,5212.8413,N,00006.0327,E,1,05,2.37,00020,M,047,M,,*65
$GPVTG,000.0,T,005.2,M,000.0,N,000.0,K,A*24
$GPGGA,105329.00,5212.8413,N,00006.0327,E,1,05,2.37,00020,M,047,M,,*68
$GPVTG,000.0,T,005.2,M,000.0,N,000.0,K,A*24
$GPGGA,105331.00,5212.8413,N,00006.0327,E,1,05,2.37,00020,M,047,M,,*61
$GPVTG,000.0,T,005.2,M,000.0,N,000.0,K,A*24
$GPGGA,105335.00,5212.8413,N,00006.0328,E,1,05,2.38,00020,M,047,M,,*65
$GPVTG,000.0,T,005.2,M,000.0,N,000.0,K,A*24
$GPGGA,105340.00,5212.8413,N,00006.0328,E,1,05,2.38,00020,M,047,M,,*67
$GPVTG,000.0,T,005.2,M,000.0,N,000.0,K,A*24
$GPGGA,105345.00,5212.8413,N,00006.0328,E,1,04,2.47,00020,M,047,M,,*6B
$GPVTG,000.0,T,005.2,M,000.0,N,000.0,K,A*24
$GPGGA,105408.00,5212.8412,N,00006.0330,E,1,05,2.39,00020,M,047,M,,*65
$GPVTG,000.0,T,005.2,M,000.0,N,000.0,K,A*24
$GPGGA,105412.00,5212.8412,N,00006.0330,E,1,05,2.39,00021,M,047,M,,*6F
$GPVTG,000.0,T,005.2,M,000.0,N,000.0,K,A*24
$GPGGA,105417.00,5212.8413,N,00006.0330,E,1,04,2.49,00020,M,047,M,,*6C
$GPVTG,000.0,T,005.2,M,000.0,N,000.0,K,A*24
$GPGGA,105422.00,5212.8412,N,00006.0331,E,1,05,2.32,00021,M,047,M,,*66
$GPVTG,000.0,T,005.2,M,000.0,N,000.0,K,A*24
$GPGGA,105424.00,5212.8412,N,00006.0332,E,1,05,2.32,00021,M,047,M,,*63
$GPVTG,000.0,T,005.2,M,000.0,N,000.0,K,A*24
$GPGGA,105428.00,5212.8412,N,00006.0332,E,1,04,4.33,00021,M,047,M,,*69
$GPVTG,000.0,T,005.2,M,000.0,N,000.0,K,A*24
$GPGGA,105433.00,5212.8411,N,00006.0333,E,1,05,2.49,00021,M,047,M,,*6B
$GPVTG,000.0,T,005.2,M,000.0,N,000.0,K,A*24
$GPGGA,105438.00,5212.8411,N,00006.0335,E,1,05,2.32,00021,M,047,M,,*6A
$GPVTG,000.0,T,005.2,M,000.0,N,000.0,K,A*24
$GPGGA,105440.00,5212.8410,N,00006.0335,E,1,06,2.26,00021,M,047,M,,*62
$GPVTG,000.0,T,005.2,M,000.0,N,000.0,K,A*24
$GPGGA,105444.00,5212.8410,N,00006.0336,E,1,06,2.26,00021,M,047,M,,*65
$GPVTG,000.0,T,005.2,M,000.0,N,000.0,K,A*24
$GPGGA,105449.00,5212.8410,N,00006.0337,E,1,06,2.19,00021,M,047,M,,*65
$GPVTG,000.0,T,005.2,M,000.0,N,000.0,K,A*24
$GPGGA,105454.00,5212.8411,N,00006.0338,E,1,07,1.76,00021,M,047,M,,*6C
$GPVTG,000.0,T,005.2,M,000.0,N,000.0,K,A*24
$GPGGA,105456.00,5212.8413,N,00006.0340,E,1,05,3.72,00022,M,047,M,,*64
$GPVTG,000.0,T,005.2,M,000.0,N,000.0,K,A*24
$GPGGA,105500.00,5212.8416,N,00006.0344,E,1,07,1.76,00022,M,047,M,,*63
$GPVTG,000.0,T,005.2,M,000.0,N,000.0,K,A*24
$GPGGA,105505.00,5212.8416,N,00006.0345,E,1,06,2.27,00022,M,047,M,,*61
$GPVTG,000.0,T,005.2,M,000.0,N,000.0,K,A*24
$GPGGA,105510.00,5212.8416,N,00006.0346,E,1,07,1.76,00022,M,047,M,,*60
$GPVTG,000.0,T,005.2,M,000.0,N,000.0,K,A*24
$GPGGA,105512.00,5212.8416,N,00006.0346,E,1,06,2.27,00022,M,047,M,,*64
$GPVTG,000.0,T,005.2,M,000.0,N,000.0,K,A*24
$GPGGA,105516.00,5212.8417,N,00006.0346,E,1,06,2.33,00022,M,047,M,,*64
$GPVTG,000.0,T,005.2,M,000.0,N,000.0,K,A*24
$GPGGA,105521.00,5212.8417,N,00006.0347,E,1,07,1.77,00022,M,047,M,,*63
$GPVTG,000.0,T,005.2,M,000.0,N,000.0,K,A*24
$GPGGA,105526.00,5212.8418,N,00006.0347,E,1,06,2.33,00022,M,047,M,,*69
$GPVTG,000.0,T,005.2,M,000.0,N,000.0,K,A*24
$GPGGA,105549.00,5212.8420,N,00006.0347,E,1,07,1.77,00022,M,047,M,,*69
$GPVTG,000.0,T,005.2,M,000.0,N,000.0,K,A*24
$GPGGA,105553.00,5212.8420,N,00006.0347,E,1,07,1.77,00022,M,047,M,,*62
$GPVTG,000.0,T,005.2,M,000.0,N,000.0,K,A*24
$GPGGA,105558.00,5212.8420,N,00006.0347,E,1,05,2.38,00022,M,047,M,,*63
$GPVTG,000.0,T,005.2,M,000.0,N,000.0,K,A*24
$GPGGA,105603.00,5212.8423,N,00006.0353,E,1,07,1.77,00021,M,047,M,,*61
$GPVTG,035.5,T,040.6,M,000.8,N,001.4,K,A*2F
$GPGGA,105605.00,5212.8426,N,00006.0359,E,1,07,1.77,00021,M,047,M,,*68
$GPVTG,185.6,T,190.8,M,000.2,N,000.3,K,A*28
$GPGGA,105609.00,5212.8429,N,00006.0360,E,1,06,1.82,00020,M,047,M,,*6B
$GPVTG,000.0,T,005.2,M,000.0,N,000.0,K,A*24
$GPGGA,105614.00,5212.8433,N,00006.0363,E,1,06,2.31,00021,M,047,M,,*65
$GPVTG,000.0,T,005.2,M,000.0,N,000.0,K,A*24
$GPGGA,105619.00,5212.8433,N,00006.0359,E,1,04,2.47,00020,M,047,M,,*63
$GPVTG,000.0,T,005.2,M,000.0,N,000.0,K,A*24
$GPGGA,105621.00,5212.8432,N,00006.0358,E,1,05,2.36,00020,M,047,M,,*6F
$GPVTG,000.0,T,005.2,M,000.0,N,000.0,K,A*24
$GPGGA,105625.00,5212.8432,N,00006.0356,E,1,04,2.47,00020,M,047,M,,*62
$GPVTG,000.0,T,005.2,M,000.0,N,000.0,K,A*24
$GPGGA,105630.00,5212.8430,N,00006.0356,E,1,05,2.57,00020,M,047,M,,*64
$GPVTG,000.0,T,005.2,M,000.0,N,000.0,K,A*24
$GPGGA,105635.00,5212.8429,N,00006.0356,E,1,06,1.82,00020,M,047,M,,*61
$GPVTG,000.0,T,005.2,M,000.0,N,000.0,K,A*24
$GPGGA,105637.00,5212.8429,N,00006.0356,E,1,06,1.82,00020,M,047,M,,*63
$GPVTG,000.0,T,005.2,M,000.0,N,000.0,K,A*24
$GPGGA,,,,,,0,00,,,,,,,*66
$GPVTG,,,,,,,,,N*30
$GPGGA,,,,,,0,00,,,,,,,*66
$GPVTG,,,,,,,,,N*30
$GPGGA,,,,,,0,00,,,,,,,*66
$GPVTG,,,,,,,,,N*30
$GPGGA,,,,,,0,00,,,,,,,*66
$GPVTG,,,,,,,,,N*30
$GPGGA,,,,,,0,00,,,,,,,*66
$GPVTG,,,,,,,,,N*30
$GPGGA,,,,,,0,00,,,,,,,*66
$GPVTG,,,,,,,,,N*30
$GPGGA,,,,,,0,00,,,,,,,*66
$GPVTG,,,,,,,,,N*30
$GPGGA,,,,,,0,00,,,,,,,*66
$GPVTG,,,,,,,,,N*30
$GPGGA,,,,,,0,00,,,,,,,*66
$GPVTG,,,,,,,,,N*30
$GPGGA,,,,,,0,00,,,,,,,*66
$GPVTG,,,,,,,,,N*30
$GPGGA,,,,,,0,01,,,,,,,*67
$GPVTG,,,,,,,,,N*30
$GPGGA,,,,,,0,02,,,,,,,*64
$GPVTG,,,,,,,,,N*30
$GPGGA,,,,,,0,02,,,,,,,*64
$GPVTG,,,,,,,,,N*30
$GPGGA,,,,,,0,02,,,,,,,*64
$GPVTG,,,,,,,,,N*30
$GPGGA,,,,,,0,02,,,,,,,*64
$GPVTG,,,,,,,,,N*30
$GPGGA,,,,,,0,02,,,,,,,*64
$GPVTG,,,,,,,,,N*30
$GPGGA,,,,,,0,02,,,,,,,*64
$GPVTG,,,,,,,,,N*30
$GPGGA,,,,,,0,02,,,,,,,*64
$GPVTG,,,,,,,,,N*30
$GPGGA,,,,,,0,02,,,,,,,*64
$GPVTG,,,,,,,,,N*30
$GPGGA,,,,,,0,03,,,,,,,*65
$GPVTG,,,,,,,,,N*30
$GPGGA,110322.0,,,,,0,02,,,,,,,*79
$GPVTG,,,,,,,,,N*30
$GPGGA,110322.0,,,,,0,02,,,,,,,*79
$GPVTG,,,,,,,,,N*30
$GPGGA,110322.0,,,,,0,02,,,,,,,*79
$GPVTG,,,,,,,,,N*30
$GPGGA,110322.0,,,,,0,02,,,,,,,*79
$GPVTG,,,,,,,,,N*30
$GPGGA,110322.0,,,,,0,02,,,,,,,*79
$GPVTG,,,,,,,,,N*30
$GPGGA,110338.0,,,,,0,00,,,,,,,*70
$GPVTG,,,,,,,,,N*30
$GPGGA,110338.0,,,,,0,00,,,,,,,*70
$GPVTG,,,,,,,,,N*30
$GPGGA,110338.0,,,,,0,00,,,,,,,*70
$GPVTG,,,,,,,,,N*30
$GPGGA,110338.0,,,,,0,00,,,,,,,*70
$GPVTG,,,,,,,,,N*30
$GPGGA,110338.0,,,,,0,00,,,,,,,*70
$GPVTG,,,,,,,,,N*30
$GPGGA,110338.0,,,,,0,00,,,,,,,*70
$GPVTG,,,,,,,,,N*30
$GPGGA,110338.0,,,,,0,00,,,,,,,*70
$GPVTG,,,,,,,,,N*30
$GPGGA,110338.0,,,,,0,00,,,,,,,*70
$GPVTG,,,,,,,,,N*30
$GPGGA,110338.0,,,,,0,01,,,,,,,*71
$GPVTG,,,,,,,,,N*30
$GPGGA,110338.0,,,,,0,01,,,,,,,*71
$GPVTG,,,,,,,,,N*30
$GPGGA,110419.00,5212.8496,N,00006.0402,E,1,04,2.37,00013,M,047,M,,*64
$GPVTG,000.0,T,005.2,M,000.0,N,000.0,K,A*24
$GPGGA,110421.00,5212.8497,N,00006.0401,E,1,04,2.37,00013,M,047,M,,*6D
$GPVTG,000.0,T,005.2,M,000.0,N,000.0,K,A*24
$GPGGA,110425.00,5212.8498,N,00006.0403,E,1,04,2.36,00013,M,047,M,,*65
$GPVTG,,,,,,,,,N*30
$GPGGA,110430.00,5212.8498,N,00006.0403,E,1,03,2.57,00013,M,047,M,,*61
$GPVTG,000.0,T,005.2,M,000.0,N,000.0,K,A*24
$GPGGA,110435.00,5212.8499,N,00006.0403,E,1,04,2.36,00013,M,047,M,,*65
$GPVTG,000.0,T,005.2,M,000.0,N,000.0,K,A*24
$GPGGA,110457.00,5212.8486,N,00006.0384,E,1,04,4.08,00016,M,047,M,,*69
$GPVTG,000.0,T,005.2,M,000.0,N,000.0,K,A*24
$GPGGA,110501.00,5212.8470,N,00006.0372,E,1,03,4.24,00017,M,047,M,,*63
$GPVTG,000.0,T,005.2,M,000.0,N,000.0,K,A*24
$GPGGA,110505.0,,,,,0,02,,,,,,,*7A
$GPVTG,,,,,,,,,N*30
$GPGGA,110510.00,5212.8459,N,00006.0365,E,1,03,4.24,00017,M,047,M,,*6E
$GPVTG,000.0,T,005.2,M,000.0,N,000.0,K,A*24
$GPGGA,110512.00,5212.8459,N,00006.0365,E,1,05,1.74,00018,M,047,M,,*65
$GPVTG,000.0,T,005.2,M,000.0,N,000.0,K,A*24
$GPGGA,110514.0,,,,,0,02,,,,,,,*7A
$GPVTG,000.0,T,005.2,M,000.0,N,000.0,K,A*24
$GPGGA,110521.00,5212.8463,N,00006.0367,E,1,05,1.74,00020,M,047,M,,*65
$GPVTG,000.0,T,005.2,M,000.0,N,000.0,K,A*24
$GPGGA,110526.00,5212.8462,N,00006.0365,E,1,04,2.81,00021,M,047,M,,*68
$GPVTG,000.0,T,005.2,M,000.0,N,000.0,K,A*24
$GPGGA,110528.00,5212.8463,N,00006.0364,E,1,05,1.74,00022,M,047,M,,*6D
$GPVTG,000.0,T,005.2,M,000.0,N,000.0,K,A*24
$GPGGA,110532.00,5212.8461,N,00006.0363,E,1,04,4.06,00022,M,047,M,,*62
$GPVTG,000.0,T,005.2,M,000.0,N,000.0,K,A*24
$GPGGA,110537.00,5212.8464,N,00006.0362,E,1,04,4.06,00023,M,047,M,,*62
$GPVTG,,,,,,,,,N*30
$GPGGA,110541.00,5212.8454,N,00006.0340,E,1,03,4.40,00024,M,047,M,,*62
$GPVTG,000.0,T,005.2,M,000.0,N,000.0,K,A*24
$GPGGA,110543.00,5212.8452,N,00006.0332,E,1,04,2.80,00025,M,047,M,,*6F
$GPVTG,000.0,T,005.2,M,000.0,N,000.0,K,A*24
$GPGGA,110547.00,5212.8460,N,00006.0346,E,1,04,4.05,00026,M,047,M,,*61
$GPVTG,000.0,T,005.2,M,000.0,N,000.0,K,A*24
$GPGGA,110551.0,,,,,0,02,,,,,,,*7B
$GPVTG,000.0,T,005.2,M,000.0,N,000.0,K,A*24
$GPGGA,110553.0,,,,,0,02,,,,,,,*79
$GPVTG,,,,,,,,,N*30
$GPGGA,110553.0,,,,,0,00,,,,,,,*7B
$GPVTG,,,,,,,,,N*30
$GPGGA,110553.0,,,,,0,03,,,,,,,*78
$GPVTG,,,,,,,,,N*30
$GPGGA,110606.0,,,,,0,01,,,,,,,*79
$GPVTG,000.0,T,005.2,M,000.0,N,000.0,K,A*24
$GPGGA,110613.00,5212.8466,N,00006.0343,E,1,03,2.36,00026,M,047,M,,*61
$GPVTG,000.0,T,005.2,M,000.0,N,000.0,K,A*24
$GPGGA,110620.0,,,,,0,01,,,,,,,*7D
$GPVTG,,,,,,,,,N*30
$GPGGA,110620.0,,,,,0,01,,,,,,,*7D
$GPVTG,,,,,,,,,N*30
$GPGGA,110620.0,,,,,0,02,,,,,,,*7E
$GPVTG,,,,,,,,,N*30
$GPGGA,110650.00,5212.8473,N,00006.0342,E,1,03,4.31,00026,M,047,M,,*62
$GPVTG,,,,,,,,,N*30
$GPGGA,110650.0,,,,,0,02,,,,,,,*79
$GPVTG,,,,,,,,,N*30
$GPGGA,110650.0,,,,,0,01,,,,,,,*7A
$GPVTG,000.0,T,005.2,M,000.0,N,000.0,K,A*24
$GPGGA,110700.0,,,,,0,03,,,,,,,*7C
$GPVTG,000.0,T,005.2,M,000.0,N,000.0,K,A*24
$GPGGA,110705.0,,,,,0,01,,,,,,,*7B
$GPVTG,,,,,,,,,N*30
$GPGGA,110705.0,,,,,0,00,,,,,,,*7A
$GPVTG,,,,,,,,,N*30
$GPGGA,110705.0,,,,,0,00,,,,,,,*7A
$GPVTG,,,,,,,,,N*30
$GPGGA,110705.0,,,,,0,02,,,,,,,*78
$GPVTG,,,,,,,,,N*30
$GPGGA,110705.0,,,,,0,01,,,,,,,*7B
$GPVTG,,,,,,,,,N*30
$GPGGA,110705.0,,,,,0,01,,,,,,,*7B
$GPVTG,,,,,,,,,N*30
$GPGGA,110728.00,5212.8462,N,00006.0337,E,1,03,4.15,00027,M,047,M,,*69
$GPVTG,,,,,,,,,N*30
$GPGGA,110728.0,,,,,0,02,,,,,,,*77
$GPVTG,,,,,,,,,N*30
$GPGGA,110728.0,,,,,0,02,,,,,,,*77
$GPVTG,,,,,,,,,N*30
$GPGGA,110728.0,,,,,0,01,,,,,,,*74
$GPVTG,,,,,,,,,N*30
$GPGGA,110728.0,,,,,0,01,,,,,,,*74
$GPVTG,,,,,,,,,N*30
$GPGGA,110728.0,,,,,0,00,,,,,,,*75
$GPVTG,,,,,,,,,N*30
$GPGGA,110728.0,,,,,0,01,,,,,,,*74
$GPVTG,,,,,,,,,N*30
$GPGGA,110817.00,5212.8457,N,00006.0333,E,1,03,4.20,00027,M,047,M,,*6E
$GPVTG,000.0,T,005.2,M,000.0,N,000.0,K,A*24
$GPGGA,110820.0,,,,,0,02,,,,,,,*70
$GPVTG,,,,,,,,,N*30
$GPGGA,110820.0,,,,,0,01,,,,,,,*73
$GPVTG,,,,,,,,,N*30
$GPGGA,110820.0,,,,,0,02,,,,,,,*70
$GPVTG,,,,,,,,,N*30
$GPGGA,110820.0,,,,,0,02,,,,,,,*70
$GPVTG,,,,,,,,,N*30
$GPGGA,110820.0,,,,,0,02,,,,,,,*70
$GPVTG,,,,,,,,,N*30
$GPGGA,110820.0,,,,,0,02,,,,,,,*70
$GPVTG,,,,,,,,,N*30
$GPGGA,110820.0,,,,,0,01,,,,,,,*73
$GPVTG,,,,,,,,,N*30
$GPGGA,110820.0,,,,,0,02,,,,,,,*70
$GPVTG,,,,,,,,,N*30
$GPGGA,110820.0,,,,,0,01,,,,,,,*73
$GPVTG,,,,,,,,,N*30
$GPGGA,110820.0,,,,,0,02,,,,,,,*70
$GPVTG,,,,,,,,,N*30
$GPGGA,110820.0,,,,,0,01,,,,,,,*73
$GPVTG,,,,,,,,,N*30
$GPGGA,110820.0,,,,,0,02,,,,,,,*70
$GPVTG,,,,,,,,,N*30
$GPGGA,110820.0,,,,,0,02,,,,,,,*70
$GPVTG,,,,,,,,,N*30
$GPGGA,110820.0,,,,,0,00,,,,,,,*72
$GPVTG,,,,,,,,,N*30
$GPGGA,110820.0,,,,,0,02,,,,,,,*70
$GPVTG,,,,,,,,,N*30
$GPGGA,110820.0,,,,,0,02,,,,,,,*70
$GPVTG,,,,,,,,,N*30
$GPGGA,110820.0,,,,,0,00,,,,,,,*72
$GPVTG,,,,,,,,,N*30
$GPGGA,110820.0,,,,,0,01,,,,,,,*73
$GPVTG,,,,,,,,,N*30
$GPGGA,110820.0,,,,,0,01,,,,,,,*73
$GPVTG,,,,,,,,,N*30
$GPGGA,110820.0,,,,,0,00,,,,,,,*72
$GPVTG,,,,,,,,,N*30
$GPGGA,110820.0,,,,,0,00,,,,,,,*72
$GPVTG,,,,,,,,,N*30
$GPGGA,110820.0,,,,,0,00,,,,,,,*72
$GPVTG,,,,,,,,,N*30
$GPGGA,110820.0,,,,,0,00,,,,,,,*72
$GPVTG,,,,,,,,,N*30
$GPGGA,110820.0,,,,,0,00,,,,,,,*72
$GPVTG,,,,,,,,,N*30
$GPGGA,110820.0,,,,,0,00,,,,,,,*72
$GPVTG,,,,,,,,,N*30
$GPGGA,110820.0,,,,,0,00,,,,,,,*72
$GPVTG,,,,,,,,,N*30
$GPGGA,110820.0,,,,,0,00,,,,,,,*72
$GPVTG,,,,,,,,,N*30
$GPGGA,110820.0,,,,,0,00,,,,,,,*72
$GPVTG,,,,,,,,,N*30
$GPGGA,110820.0,,,,,0,00,,,,,,,*72
$GPVTG,,,,,,,,,N*30
$GPGGA,110820.0,,,,,0,00,,,,,,,*72
$GPVTG,,,,,,,,,N*30
$GPGGA,110820.0,,,,,0,00,,,,,,,*72
$GPVTG,,,,,,,,,N*30
$GPGGA,110820.0,,,,,0,00,,,,,,,*72
$GPVTG,,,,,,,,,N*30
$GPGGA,110820.0,,,,,0,00,,,,,,,*72
$GPVTG,191.6,T,196.8,M,001.6,N,003.0,K,A*2E
$GPGGA,111051.0,,,,,0,01,,,,,,,*7C
$GPVTG,,,,,,,,,N*30
$GPGGA,111051.0,,,,,0,02,,,,,,,*7F
$GPVTG,,,,,,,,,N*30
$GPGGA,111051.0,,,,,0,02,,,,,,,*7F
$GPVTG,,,,,,,,,N*30
$GPGGA,111051.0,,,,,0,02,,,,,,,*7F
$GPVTG,,,,,,,,,N*30
$GPGGA,111111.00,5212.8316,N,00006.0325,E,1,03,2.26,00029,M,047,M,,*6B
$GPVTG,152.9,T,158.0,M,003.8,N,006.9,K,A*24
$GPGGA,111114.0,,,,,0,02,,,,,,,*7F
$GPVTG,197.2,T,202.4,M,003.2,N,005.9,K,A*27
$GPGGA,111132.0,,,,,0,00,,,,,,,*79
$GPVTG,137.3,T,142.5,M,000.1,N,000.2,K,A*24
$GPGGA,111140.0,,,,,0,01,,,,,,,*7D
$GPVTG,,,,,,,,,N*30
$GPGGA,111148.00,5212.8210,N,00006.0239,E,1,03,2.35,00029,M,047,M,,*6E
$GPVTG,000.0,T,005.2,M,000.0,N,000.0,K,A*24
$GPGGA,111152.0,,,,,0,01,,,,,,,*7E
$GPVTG,,,,,,,,,N*30
$GPGGA,111152.0,,,,,0,02,,,,,,,*7D
$GPVTG,,,,,,,,,N*30
$GPGGA,111152.0,,,,,0,00,,,,,,,*7F
$GPVTG,,,,,,,,,N*30
$GPGGA,111204.00,5212.8234,N,00006.0302,E,1,03,3.98,00029,M,047,M,,*6C
$GPVTG,000.0,T,005.2,M,000.0,N,000.0,K,A*24
$GPGGA,111205.0,,,,,0,01,,,,,,,*7F
$GPVTG,,,,,,,,,N*30
$GPGGA,111205.0,,,,,0,01,,,,,,,*7F
$GPVTG,,,,,,,,,N*30
$GPGGA,111215.00,5212.8218,N,00006.0315,E,1,03,3.97,00029,M,047,M,,*6B
$GPVTG,,,,,,,,,N*30
$GPGGA,111220.00,5212.8227,N,00006.0314,E,1,03,3.97,00026,M,047,M,,*6F
$GPVTG,,,,,,,,,N*30
$GPGGA,111220.0,,,,,0,02,,,,,,,*7B
$GPVTG,,,,,,,,,N*30
$GPGGA,111220.0,,,,,0,01,,,,,,,*78
$GPVTG,,,,,,,,,N*30
$GPGGA,111220.0,,,,,0,01,,,,,,,*78
$GPVTG,,,,,,,,,N*30
$GPGGA,111220.0,,,,,0,00,,,,,,,*79
$GPVTG,,,,,,,,,N*30
$GPGGA,111220.0,,,,,0,01,,,,,,,*78
$GPVTG,,,,,,,,,N*30
$GPGGA,111220.0,,,,,0,02,,,,,,,*7B
$GPVTG,,,,,,,,,N*30
$GPGGA,111220.0,,,,,0,02,,,,,,,*7B
$GPVTG,,,,,,,,,N*30
$GPGGA,111250.0,,,,,0,00,,,,,,,*7E
$GPVTG,,,,,,,,,N*30
$GPGGA,111250.0,,,,,0,01,,,,,,,*7F
$GPVTG,,,,,,,,,N*30
$GPGGA,111250.0,,,,,0,01,,,,,,,*7F
$GPVTG,,,,,,,,,N*30
$GPGGA,111250.0,,,,,0,01,,,,,,,*7F
$GPVTG,,,,,,,,,N*30
$GPGGA,111250.0,,,,,0,00,,,,,,,*7E
$GPVTG,,,,,,,,,N*30
$GPGGA,111250.0,,,,,0,01,,,,,,,*7F
$GPVTG,,,,,,,,,N*30
$GPGGA,111250.0,,,,,0,01,,,,,,,*7F
$GPVTG,,,,,,,,,N*30
$GPGGA,111250.0,,,,,0,01,,,,,,,*7F
$GPVTG,,,,,,,,,N*30
$GPGGA,111250.0,,,,,0,01,,,,,,,*7F
$GPVTG,,,,,,,,,N*30
$GPGGA,111250.0,,,,,0,02,,,,,,,*7C
$GPVTG,,,,,,,,,N*30
$GPGGA,111250.0,,,,,0,02,,,,,,,*7C
$GPVTG,,,,,,,,,N*30
$GPGGA,111250.0,,,,,0,01,,,,,,,*7F
$GPVTG,,,,,,,,,N*30
$GPGGA,111250.0,,,,,0,01,,,,,,,*7F
$GPVTG,,,,,,,,,N*30
$GPGGA,111250.0,,,,,0,00,,,,,,,*7E
$GPVTG,,,,,,,,,N*30
$GPGGA,111250.0,,,,,0,00,,,,,,,*7E
$GPVTG,,,,,,,,,N*30
$GPGGA,111250.0,,,,,0,00,,,,,,,*7E
$GPVTG,,,,,,,,,N*30
$GPGGA,111250.0,,,,,0,00,,,,,,,*7E
$GPVTG,,,,,,,,,N*30
$GPGGA,111250.0,,,,,0,01,,,,,,,*7F
$GPVTG,,,,,,,,,N*30
$GPGGA,111250.0,,,,,0,01,,,,,,,*7F
$GPVTG,,,,,,,,,N*30
$GPGGA,111250.0,,,,,0,00,,,,,,,*7E
$GPVTG,,,,,,,,,N*30
$GPGGA,111250.0,,,,,0,00,,,,,,,*7E
$GPVTG,,,,,,,,,N*30
$GPGGA,111250.0,,,,,0,00,,,,,,,*7E
$GPVTG,,,,,,,,,N*30
$GPGGA,111250.0,,,,,0,00,,,,,,,*7E
$GPVTG,,,,,,,,,N*30
$GPGGA,111250.0,,,,,0,00,,,,,,,*7E
$GPVTG,,,,,,,,,N*30
$GPGGA,111250.0,,,,,0,01,,,,,,,*7F
$GPVTG,,,,,,,,,N*30
$GPGGA,111250.0,,,,,0,01,,,,,,,*7F
$GPVTG,,,,,,,,,N*30
$GPGGA,111250.0,,,,,0,01,,,,,,,*7F
$GPVTG,,,,,,,,,N*30
$GPGGA,111250.0,,,,,0,01,,,,,,,*7F
$GPVTG,,,,,,,,,N*30
$GPGGA,111250.0,,,,,0,01,,,,,,,*7F
$GPVTG,,,,,,,,,N*30
$GPGGA,111250.0,,,,,0,01,,,,,,,*7F
$GPVTG,,,,,,,,,N*30
$GPGGA,111250.0,,,,,0,02,,,,,,,*7C
$GPVTG,,,,,,,,,N*30
$GPGGA,111250.0,,,,,0,00,,,,,,,*7E
$GPVTG,,,,,,,,,N*30
$GPGGA,111250.0,,,,,0,00,,,,,,,*7E
$GPVTG,,,,,,,,,N*30
$GPGGA,111250.0,,,,,0,00,,,,,,,*7E
$GPVTG,,,,,,,,,N*30
$GPGGA,111250.0,,,,,0,00,,,,,,,*7E
$GPVTG,,,,,,,,,N*30
$GPGGA,111250.0,,,,,0,00,,,,,,,*7E
$GPVTG,,,,,,,,,N*30
$GPGGA,111250.0,,,,,0,01,,,,,,,*7F
$GPVTG,,,,,,,,,N*30
$GPGGA,111250.0,,,,,0,01,,,,,,,*7F
$GPVTG,,,,,,,,,N*30
$GPGGA,111250.0,,,,,0,01,,,,,,,*7F
$GPVTG,,,,,,,,,N*30
$GPGGA,111250.0,,,,,0,00,,,,,,,*7E
$GPVTG,,,,,,,,,N*30
$GPGGA,111250.0,,,,,0,00,,,,,,,*7E
$GPVTG,,,,,,,,,N*30
$GPGGA,111250.0,,,,,0,00,,,,,,,*7E
$GPVTG,,,,,,,,,N*30
$GPGGA,111250.0,,,,,0,00,,,,,,,*7E
$GPVTG,,,,,,,,,N*30
$GPGGA,111250.0,,,,,0,01,,,,,,,*7F
$GPVTG,,,,,,,,,N*30
$GPGGA,111250.0,,,,,0,00,,,,,,,*7E
$GPVTG,,,,,,,,,N*30
$GPGGA,111250.0,,,,,0,00,,,,,,,*7E
$GPVTG,,,,,,,,,N*30
$GPGGA,111250.0,,,,,0,01,,,,,,,*7F
$GPVTG,,,,,,,,,N*30
$GPGGA,111250.0,,,,,0,01,,,,,,,*7F
$GPVTG,,,,,,,,,N*30
$GPGGA,111250.0,,,,,0,02,,,,,,,*7C
$GPVTG,,,,,,,,,N*30
$GPGGA,111250.0,,,,,0,01,,,,,,,*7F
$GPVTG,,,,,,,,,N*30
$GPGGA,111250.0,,,,,0,01,,,,,,,*7F
$GPVTG,,,,,,,,,N*30
$GPGGA,111250.0,,,,,0,01,,,,,,,*7F
$GPVTG,,,,,,,,,N*30
$GPGGA,111250.0,,,,,0,01,,,,,,,*7F
$GPVTG,,,,,,,,,N*30
$GPGGA,111250.0,,,,,0,00,,,,,,,*7E
$GPVTG,,,,,,,,,N*30
$GPGGA,111250.0,,,,,0,00,,,,,,,*7E
$GPVTG,,,,,,,,,N*30
$GPGGA,111250.0,,,,,0,00,,,,,,,*7E
$GPVTG,,,,,,,,,N*30
$GPGGA,111250.0,,,,,0,00,,,,,,,*7E
$GPVTG,,,,,,,,,N*30
$GPGGA,111250.0,,,,,0,01,,,,,,,*7F
$GPVTG,,,,,,,,,N*30
$GPGGA,111250.0,,,,,0,01,,,,,,,*7F
$GPVTG,,,,,,,,,N*30
$GPGGA,111250.0,,,,,0,00,,,,,,,*7E
$GPVTG,,,,,,,,,N*30
$GPGGA,111250.0,,,,,0,00,,,,,,,*7E
$GPVTG,,,,,,,,,N*30
$GPGGA,111250.0,,,,,0,00,,,,,,,*7E
$GPVTG,,,,,,,,,N*30
$GPGGA,111250.0,,,,,0,00,,,,,,,*7E
$GPVTG,,,,,,,,,N*30
$GPGGA,111250.0,,,,,0,00,,,,,,,*7E
$GPVTG,,,,,,,,,N*30
$GPGGA,111250.0,,,,,0,00,,,,,,,*7E
$GPVTG,,,,,,,,,N*30
$GPGGA,111250.0,,,,,0,00,,,,,,,*7E
$GPVTG,,,,,,,,,N*30
$GPGGA,111250.0,,,,,0,00,,,,,,,*7E
$GPVTG,,,,,,,,,N*30
$GPGGA,111250.0,,,,,0,00,,,,,,,*7E
$GPVTG,,,,,,,,,N*30
$GPGGA,111250.0,,,,,0,00,,,,,,,*7E
$GPVTG,,,,,,,,,N*30
$GPGGA,111250.0,,,,,0,00,,,,,,,*7E
$GPVTG,,,,,,,,,N*30
$GPGGA,111250.0,,,,,0,00,,,,,,,*7E
$GPVTG,,,,,,,,,N*30
$GPGGA,111250.0,,,,,0,00,,,,,,,*7E
$GPVTG,,,,,,,,,N*30
$GPGGA,111250.0,,,,,0,00,,,,,,,*7E
$GPVTG,,,,,,,,,N*30
$GPGGA,111250.0,,,,,0,00,,,,,,,*7E
$GPVTG,,,,,,,,,N*30
$GPGGA,111250.0,,,,,0,00,,,,,,,*7E
$GPVTG,,,,,,,,,N*30
$GPGGA,111250.0,,,,,0,01,,,,,,,*7F
$GPVTG,,,,,,,,,N*30
$GPGGA,111250.0,,,,,0,01,,,,,,,*7F
$GPVTG,,,,,,,,,N*30
$GPGGA,111250.0,,,,,0,00,,,,,,,*7E
$GPVTG,,,,,,,,,N*30
$GPGGA,111250.0,,,,,0,00,,,,,,,*7E
$GPVTG,,,,,,,,,N*30
$GPGGA,111250.0,,,,,0,00,,,,,,,*7E
$GPVTG,,,,,,,,,N*30
$GPGGA,111250.0,,,,,0,00,,,,,,,*7E
$GPVTG,,,,,,,,,N*30
$GPGGA,111250.0,,,,,0,00,,,,,,,*7E
$GPVTG,,,,,,,,,N*30
$GPGGA,111250.0,,,,,0,00,,,,,,,*7E
$GPVTG,,,,,,,,,N*30
$GPGGA,111250.0,,,,,0,00,,,,,,,*7E
$GPVTG,,,,,,,,,N*30
$GPGGA,111250.0,,,,,0,00,,,,,,,*7E
$GPVTG,,,,,,,,,N*30
$GPGGA,111250.0,,,,,0,00,,,,,,,*7E
$GPVTG,,,,,,,,,N*30
$GPGGA,111250.0,,,,,0,00,,,,,,,*7E
$GPVTG,,,,,,,,,N*30
$GPGGA,111250.0,,,,,0,00,,,,,,,*7E
$GPVTG,,,,,,,,,N*30
$GPGGA,111250.0,,,,,0,00,,,,,,,*7E
$GPVTG,,,,,,,,,N*30
$GPGGA,111250.0,,,,,0,00,,,,,,,*7E
$GPVTG,,,,,,,,,N*30
$GPGGA,111250.0,,,,,0,00,,,,,,,*7E
$GPVTG,,,,,,,,,N*30
$GPGGA,111250.0,,,,,0,00,,,,,,,*7E
$GPVTG,,,,,,,,,N*30
$GPGGA,111250.0,,,,,0,00,,,,,,,*7E
$GPVTG,,,,,,,,,N*30
$GPGGA,111250.0,,,,,0,00,,,,,,,*7E
$GPVTG,,,,,,,,,N*30
$GPGGA,111250.0,,,,,0,00,,,,,,,*7E
$GPVTG,,,,,,,,,N*30
$GPGGA,111250.0,,,,,0,00,,,,,,,*7E
$GPVTG,,,,,,,,,N*30
$GPGGA,111250.0,,,,,0,00,,,,,,,*7E
$GPVTG,,,,,,,,,N*30
$GPGGA,111250.0,,,,,0,00,,,,,,,*7E
$GPVTG,,,,,,,,,N*30
$GPGGA,111250.0,,,,,0,00,,,,,,,*7E
$GPVTG,,,,,,,,,N*30
$GPGGA,111250.0,,,,,0,00,,,,,,,*7E
$GPVTG,,,,,,,,,N*30
$GPGGA,111250.0,,,,,0,00,,,,,,,*7E
$GPVTG,,,,,,,,,N*30
$GPGGA,111250.0,,,,,0,00,,,,,,,*7E
$GPVTG,,,,,,,,,N*30
$GPGGA,111250.0,,,,,0,00,,,,,,,*7E
$GPVTG,,,,,,,,,N*30
$GPGGA,111250.0,,,,,0,00,,,,,,,*7E
$GPVTG,,,,,,,,,N*30
$GPGGA,111250.0,,,,,0,00,,,,,,,*7E
$GPVTG,,,,,,,,,N*30
$GPGGA,111250.0,,,,,0,00,,,,,,,*7E
$GPVTG,,,,,,,,,N*30
$GPGGA,111250.0,,,,,0,00,,,,,,,*7E
$GPVTG,,,,,,,,,N*30
$GPGGA,111250.0,,,,,0,00,,,,,,,*7E
$GPVTG,,,,,,,,,N*30
$GPGGA,111250.0,,,,,0,00,,,,,,,*7E
$GPVTG,,,,,,,,,N*30
$GPGGA,111250.0,,,,,0,00,,,,,,,*7E
$GPVTG,,,,,,,,,N*30
$GPGGA,111250.0,,,,,0,00,,,,,,,*7E
$GPVTG,,,,,,,,,N*30
$GPGGA,111250.0,,,,,0,00,,,,,,,*7E
$GPVTG,,,,,,,,,N*30
$GPGGA,111250.0,,,,,0,00,,,,,,,*7E
$GPVTG,,,,,,,,,N*30
$GPGGA,111250.0,,,,,0,00,,,,,,,*7E
$GPVTG,,,,,,,,,N*30
$GPGGA,111250.0,,,,,0,00,,,,,,,*7E
$GPVTG,,,,,,,,,N*30
$GPGGA,111250.0,,,,,0,00,,,,,,,*7E
$GPVTG,,,,,,,,,N*30
$GPGGA,111250.0,,,,,0,00,,,,,,,*7E
$GPVTG,,,,,,,,,N*30
$GPGGA,111250.0,,,,,0,00,,,,,,,*7E
$GPVTG,,,,,,,,,N*30
$GPGGA,111250.0,,,,,0,00,,,,,,,*7E
$GPVTG,,,,,,,,,N*30
$GPGGA,111250.0,,,,,0,00,,,,,,,*7E
$GPVTG,,,,,,,,,N*30
$GPGGA,111250.0,,,,,0,00,,,,,,,*7E
$GPVTG,,,,,,,,,N*30
$GPGGA,111250.0,,,,,0,00,,,,,,,*7E
$GPVTG,,,,,,,,,N*30
$GPGGA,111250.0,,,,,0,00,,,,,,,*7E
$GPVTG,,,,,,,,,N*30
$GPGGA,111250.0,,,,,0,00,,,,,,,*7E
$GPVTG,,,,,,,,,N*30
$GPGGA,111250.0,,,,,0,00,,,,,,,*7E
$GPVTG,,,,,,,,,N*30
$GPGGA,111250.0,,,,,0,00,,,,,,,*7E
$GPVTG,,,,,,,,,N*30
$GPGGA,111250.0,,,,,0,00,,,,,,,*7E
$GPVTG,,,,,,,,,N*30
$GPGGA,111250.0,,,,,0,00,,,,,,,*7E
$GPVTG,,,,,,,,,N*30
$GPGGA,111250.0,,,,,0,00,,,,,,,*7E
$GPVTG,,,,,,,,,N*30
$GPGGA,111250.0,,,,,0,00,,,,,,,*7E
$GPVTG,,,,,,,,,N*30
$GPGGA,111250.0,,,,,0,00,,,,,,,*7E
$GPVTG,,,,,,,,,N*30
$GPGGA,111250.0,,,,,0,00,,,,,,,*7E
$GPVTG,,,,,,,,,N*30
$GPGGA,111250.0,,,,,0,00,,,,,,,*7E
$GPVTG,,,,,,,,,N*30
$GPGGA,111250.0,,,,,0,00,,,,,,,*7E
$GPVTG,,,,,,,,,N*30
$GPGGA,111250.0,,,,,0,00,,,,,,,*7E
$GPVTG,,,,,,,,,N*30
$GPGGA,111250.0,,,,,0,00,,,,,,,*7E
$GPVTG,,,,,,,,,N*30
$GPGGA,111250.0,,,,,0,00,,,,,,,*7E
$GPVTG,,,,,,,,,N*30
$GPGGA,111250.0,,,,,0,00,,,,,,,*7E
$GPVTG,,,,,,,,,N*30
$GPGGA,111250.0,,,,,0,00,,,,,,,*7E
$GPVTG,,,,,,,,,N*30
$GPGGA,111250.0,,,,,0,00,,,,,,,*7E
$GPVTG,,,,,,,,,N*30
$GPGGA,111250.0,,,,,0,00,,,,,,,*7E
$GPVTG,,,,,,,,,N*30
$GPGGA,111250.0,,,,,0,00,,,,,,,*7E
$GPVTG,,,,,,,,,N*30
$GPGGA,111250.0,,,,,0,00,,,,,,,*7E
$GPVTG,,,,,,,,,N*30
$GPGGA,111250.0,,,,,0,00,,,,,,,*7E
$GPVTG,,,,,,,,,N*30
$GPGGA,111250.0,,,,,0,00,,,,,,,*7E
$GPVTG,,,,,,,,,N*30
$GPGGA,111250.0,,,,,0,00,,,,,,,*7E
$GPVTG,,,,,,,,,N*30
$GPGGA,111250.0,,,,,0,00,,,,,,,*7E
$GPVTG,,,,,,,,,N*30
$GPGGA,111250.0,,,,,0,00,,,,,,,*7E
$GPVTG,,,,,,,,,N*30
$GPGGA,111250.0,,,,,0,00,,,,,,,*7E
$GPVTG,,,,,,,,,N*30
$GPGGA,111250.0,,,,,0,00,,,,,,,*7E
$GPVTG,,,,,,,,,N*30
$GPGGA,111250.0,,,,,0,00,,,,,,,*7E
$GPVTG,,,,,,,,,N*30
$GPGGA,111250.0,,,,,0,00,,,,,,,*7E
$GPVTG,,,,,,,,,N*30
$GPGGA,111250.0,,,,,0,00,,,,,,,*7E
$GPVTG,,,,,,,,,N*30
$GPGGA,111250.0,,,,,0,00,,,,,,,*7E
$GPVTG,,,,,,,,,N*30
$GPGGA,111250.0,,,,,0,00,,,,,,,*7E
$GPVTG,,,,,,,,,N*30
$GPGGA,111250.0,,,,,0,00,,,,,,,*7E
$GPVTG,,,,,,,,,N*30
$GPGGA,111250.0,,,,,0,00,,,,,,,*7E
$GPVTG,,,,,,,,,N*30
$GPGGA,111250.0,,,,,0,00,,,,,,,*7E
$GPVTG,,,,,,,,,N*30
$GPGGA,111250.0,,,,,0,00,,,,,,,*7E
$GPVTG,,,,,,,,,N*30
$GPGGA,111250.0,,,,,0,00,,,,,,,*7E
$GPVTG,,,,,,,,,N*30
$GPGGA,111250.0,,,,,0,00,,,,,,,*7E
$GPVTG,,,,,,,,,N*30
$GPGGA,111250.0,,,,,0,00,,,,,,,*7E
$GPVTG,,,,,,,,,N*30
$GPGGA,111250.0,,,,,0,00,,,,,,,*7E
$GPVTG,,,,,,,,,N*30
$GPGGA,111250.0,,,,,0,00,,,,,,,*7E
$GPVTG,,,,,,,,,N*30
$GPGGA,111250.0,,,,,0,00,,,,,,,*7E
$GPVTG,,,,,,,,,N*30
$GPGGA,111250.0,,,,,0,00,,,,,,,*7E
$GPVTG,,,,,,,,,N*30
$GPGGA,111250.0,,,,,0,00,,,,,,,*7E
$GPVTG,,,,,,,,,N*30
$GPGGA,111250.0,,,,,0,00,,,,,,,*7E
$GPVTG,,,,,,,,,N*30
$GPGGA,111250.0,,,,,0,00,,,,,,,*7E
$GPVTG,,,,,,,,,N*30
$GPGGA,111250.0,,,,,0,00,,,,,,,*7E
$GPVTG,,,,,,,,,N*30
$GPGGA,111250.0,,,,,0,00,,,,,,,*7E
$GPVTG,,,,,,,,,N*30
$GPGGA,111250.0,,,,,0,00,,,,,,,*7E
$GPVTG,,,,,,,,,N*30
$GPGGA,111250.0,,,,,0,00,,,,,,,*7E
$GPVTG,,,,,,,,,N*30
$GPGGA,111250.0,,,,,0,00,,,,,,,*7E
$GPVTG,,,,,,,,,N*30
$GPGGA,111250.0,,,,,0,00,,,,,,,*7E
$GPVTG,,,,,,,,,N*30
$GPGGA,111250.0,,,,,0,00,,,,,,,*7E
$GPVTG,,,,,,,,,N*30
$GPGGA,111250.0,,,,,0,00,,,,,,,*7E
$GPVTG,,,,,,,,,N*30
$GPGGA,111250.0,,,,,0,00,,,,,,,*7E
$GPVTG,,,,,,,,,N*30
$GPGGA,111250.0,,,,,0,00,,,,,,,*7E
$GPVTG,,,,,,,,,N*30
$GPGGA,111250.0,,,,,0,00,,,,,,,*7E
$GPVTG,,,,,,,,,N*30
$GPGGA,111250.0,,,,,0,00,,,,,,,*7E
$GPVTG,,,,,,,,,N*30
$GPGGA,111250.0,,,,,0,00,,,,,,,*7E
$GPVTG,,,,,,,,,N*30
$GPGGA,111250.0,,,,,0,00,,,,,,,*7E
$GPVTG,,,,,,,,,N*30
$GPGGA,111250.0,,,,,0,00,,,,,,,*7E
$GPVTG,,,,,,,,,N*30
$GPGGA,111250.0,,,,,0,00,,,,,,,*7E
$GPVTG,,,,,,,,,N*30
$GPGGA,111250.0,,,,,0,00,,,,,,,*7E
$GPVTG,,,,,,,,,N*30
$GPGGA,111250.0,,,,,0,00,,,,,,,*7E
$GPVTG,,,,,,,,,N*30
$GPGGA,111250.0,,,,,0,00,,,,,,,*7E
$GPVTG,,,,,,,,,N*30
$GPGGA,111250.0,,,,,0,00,,,,,,,*7E
$GPVTG,,,,,,,,,N*30
$GPGGA,111250.0,,,,,0,00,,,,,,,*7E
$GPVTG,,,,,,,,,N*30
$GPGGA,111250.0,,,,,0,00,,,,,,,*7E
$GPVTG,,,,,,,,,N*30
$GPGGA,111250.0,,,,,0,00,,,,,,,*7E
$GPVTG,,,,,,,,,N*30
$GPGGA,111250.0,,,,,0,00,,,,,,,*7E
$GPVTG,,,,,,,,,N*30
$GPGGA,111250.0,,,,,0,00,,,,,,,*7E
$GPVTG,,,,,,,,,N*30
$GPGGA,111250.0,,,,,0,00,,,,,,,*7E
$GPVTG,,,,,,,,,N*30
$GPGGA,111250.0,,,,,0,00,,,,,,,*7E
$GPVTG,,,,,,,,,N*30
$GPGGA,111250.0,,,,,0,00,,,,,,,*7E
$GPVTG,,,,,,,,,N*30
$GPGGA,111250.0,,,,,0,00,,,,,,,*7E
$GPVTG,,,,,,,,,N*30
$GPGGA,111250.0,,,,,0,00,,,,,,,*7E
$GPVTG,,,,,,,,,N*30
$GPGGA,111250.0,,,,,0,00,,,,,,,*7E
$GPVTG,,,,,,,,,N*30
$GPGGA,111250.0,,,,,0,00,,,,,,,*7E
$GPVTG,,,,,,,,,N*30
$GPGGA,111250.0,,,,,0,00,,,,,,,*7E
$GPVTG,,,,,,,,,N*30
$GPGGA,111250.0,,,,,0,00,,,,,,,*7E
$GPVTG,,,,,,,,,N*30
$GPGGA,111250.0,,,,,0,00,,,,,,,*7E
$GPVTG,,,,,,,,,N*30
$GPGGA,111250.0,,,,,0,00,,,,,,,*7E
$GPVTG,,,,,,,,,N*30
$GPGGA,111250.0,,,,,0,00,,,,,,,*7E
$GPVTG,,,,,,,,,N*30
$GPGGA,111250.0,,,,,0,00,,,,,,,*7E
$GPVTG,,,,,,,,,N*30
$GPGGA,111250.0,,,,,0,00,,,,,,,*7E
$GPVTG,,,,,,,,,N*30
$GPGGA,111250.0,,,,,0,00,,,,,,,*7E
$GPVTG,,,,,,,,,N*30
$GPGGA,111250.0,,,,,0,00,,,,,,,*7E
$GPVTG,,,,,,,,,N*30
$GPGGA,111250.0,,,,,0,00,,,,,,,*7E
$GPVTG,,,,,,,,,N*30
$GPGGA,111250.0,,,,,0,00,,,,,,,*7E
$GPVTG,,,,,,,,,N*30
$GPGGA,111250.0,,,,,0,00,,,,,,,*7E
$GPVTG,,,,,,,,,N*30
$GPGGA,111250.0,,,,,0,00,,,,,,,*7E
$GPVTG,,,,,,,,,N*30
$GPGGA,111250.0,,,,,0,00,,,,,,,*7E
$GPVTG,,,,,,,,,N*30
$GPGGA,111250.0,,,,,0,00,,,,,,,*7E
$GPVTG,,,,,,,,,N*30
$GPGGA,111250.0,,,,,0,00,,,,,,,*7E
$GPVTG,,,,,,,,,N*30
$GPGGA,111250.0,,,,,0,00,,,,,,,*7E
$GPVTG,,,,,,,,,N*30
$GPGGA,111250.0,,,,,0,00,,,,,,,*7E
$GPVTG,,,,,,,,,N*30
$GPGGA,111250.0,,,,,0,00,,,,,,,*7E
$GPVTG,,,,,,,,,N*30
$GPGGA,111250.0,,,,,0,00,,,,,,,*7E
$GPVTG,,,,,,,,,N*30
$GPGGA,111250.0,,,,,0,00,,,,,,,*7E
$GPVTG,,,,,,,,,N*30
$GPGGA,111250.0,,,,,0,00,,,,,,,*7E
$GPVTG,,,,,,,,,N*30
$GPGGA,111250.0,,,,,0,00,,,,,,,*7E
$GPVTG,,,,,,,,,N*30
$GPGGA,111250.0,,,,,0,00,,,,,,,*7E
$GPVTG,,,,,,,,,N*30
$GPGGA,111250.0,,,,,0,00,,,,,,,*7E
$GPVTG,,,,,,,,,N*30
$GPGGA,111250.0,,,,,0,00,,,,,,,*7E
$GPVTG,,,,,,,,,N*30
$GPGGA,111250.0,,,,,0,00,,,,,,,*7E
$GPVTG,,,,,,,,,N*30
$GPGGA,111250.0,,,,,0,00,,,,,,,*7E
$GPVTG,,,,,,,,,N*30
$GPGGA,111250.0,,,,,0,00,,,,,,,*7E
$GPVTG,,,,,,,,,N*30
$GPGGA,111250.0,,,,,0,00,,,,,,,*7E
$GPVTG,,,,,,,,,N*30
$GPGGA,111250.0,,,,,0,00,,,,,,,*7E
$GPVTG,,,,,,,,,N*30
$GPGGA,111250.0,,,,,0,00,,,,,,,*7E
$GPVTG,,,,,,,,,N*30
$GPGGA,111250.0,,,,,0,00,,,,,,,*7E
$GPVTG,,,,,,,,,N*30
$GPGGA,111250.0,,,,,0,00,,,,,,,*7E
$GPVTG,,,,,,,,,N*30
$GPGGA,111250.0,,,,,0,00,,,,,,,*7E
$GPVTG,,,,,,,,,N*30
$GPGGA,111250.0,,,,,0,00,,,,,,,*7E
$GPVTG,,,,,,,,,N*30
$GPGGA,111250.0,,,,,0,00,,,,,,,*7E
$GPVTG,,,,,,,,,N*30
$GPGGA,111250.0,,,,,0,00,,,,,,,*7E
$GPVTG,,,,,,,,,N*30
$GPGGA,111250.0,,,,,0,00,,,,,,,*7E
$GPVTG,,,,,,,,,N*30
$GPGGA,111250.0,,,,,0,00,,,,,,,*7E
$GPVTG,,,,,,,,,N*30
$GPGGA,111250.0,,,,,0,00,,,,,,,*7E
$GPVTG,,,,,,,,,N*30
$GPGGA,111250.0,,,,,0,00,,,,,,,*7E
$GPVTG,,,,,,,,,N*30
$GPGGA,111250.0,,,,,0,00,,,,,,,*7E
$GPVTG,,,,,,,,,N*30
$GPGGA,111250.0,,,,,0,00,,,,,,,*7E
$GPVTG,,,,,,,,,N*30
$GPGGA,111250.0,,,,,0,00,,,,,,,*7E
$GPVTG,,,,,,,,,N*30
$GPGGA,111250.0,,,,,0,00,,,,,,,*7E
$GPVTG,,,,,,,,,N*30
$GPGGA,111250.0,,,,,0,00,,,,,,,*7E
$GPVTG,,,,,,,,,N*30
$GPGGA,111250.0,,,,,0,00,,,,,,,*7E
$GPVTG,,,,,,,,,N*30
$GPGGA,111250.0,,,,,0,00,,,,,,,*7E
$GPVTG,,,,,,,,,N*30
$GPGGA,111250.0,,,,,0,00,,,,,,,*7E
$GPVTG,,,,,,,,,N*30
$GPGGA,111250.0,,,,,0,00,,,,,,,*7E
$GPVTG,,,,,,,,,N*30
$GPGGA,111250.0,,,,,0,00,,,,,,,*7E
$GPVTG,,,,,,,,,N*30
$GPGGA,111250.0,,,,,0,00,,,,,,,*7E
$GPVTG,,,,,,,,,N*30
$GPGGA,111250.0,,,,,0,00,,,,,,,*7E
$GPVTG,,,,,,,,,N*30
$GPGGA,111250.0,,,,,0,00,,,,,,,*7E
$GPVTG,,,,,,,,,N*30
$GPGGA,111250.0,,,,,0,00,,,,,,,*7E
$GPVTG,,,,,,,,,N*30
$GPGGA,111250.0,,,,,0,00,,,,,,,*7E
$GPVTG,,,,,,,,,N*30
$GPGGA,111250.0,,,,,0,00,,,,,,,*7E
$GPVTG,,,,,,,,,N*30
$GPGGA,111250.0,,,,,0,00,,,,,,,*7E
$GPVTG,,,,,,,,,N*30
$GPGGA,111250.0,,,,,0,00,,,,,,,*7E
$GPVTG,,,,,,,,,N*30
$GPGGA,111250.0,,,,,0,00,,,,,,,*7E
$GPVTG,,,,,,,,,N*30
$GPGGA,111250.0,,,,,0,00,,,,,,,*7E
$GPVTG,,,,,,,,,N*30
$GPGGA,111250.0,,,,,0,00,,,,,,,*7E
$GPVTG,,,,,,,,,N*30
$GPGGA,111250.0,,,,,0,00,,,,,,,*7E
$GPVTG,,,,,,,,,N*30
$GPGGA,111250.0,,,,,0,00,,,,,,,*7E
$GPVTG,,,,,,,,,N*30
$GPGGA,111250.0,,,,,0,00,,,,,,,*7E
$GPVTG,,,,,,,,,N*30
$GPGGA,111250.0,,,,,0,00,,,,,,,*7E
$GPVTG,,,,,,,,,N*30
$GPGGA,111250.0,,,,,0,00,,,,,,,*7E
$GPVTG,,,,,,,,,N*30
$GPGGA,111250.0,,,,,0,00,,,,,,,*7E
$GPVTG,,,,,,,,,N*30
$GPGGA,111250.0,,,,,0,00,,,,,,,*7E
$GPVTG,,,,,,,,,N*30
$GPGGA,111250.0,,,,,0,00,,,,,,,*7E
$GPVTG,,,,,,,,,N*30
$GPGGA,111250.0,,,,,0,00,,,,,,,*7E
$GPVTG,,,,,,,,,N*30
$GPGGA,111250.0,,,,,0,00,,,,,,,*7E
$GPVTG,,,,,,,,,N*30
$GPGGA,111250.0,,,,,0,00,,,,,,,*7E
$GPVTG,,,,,,,,,N*30
$GPGGA,111250.0,,,,,0,00,,,,,,,*7E
$GPVTG,,,,,,,,,N*30
$GPGGA,111250.0,,,,,0,00,,,,,,,*7E
$GPVTG,,,,,,,,,N*30
$GPGGA,111250.0,,,,,0,00,,,,,,,*7E
$GPVTG,,,,,,,,,N*30
$GPGGA,111250.0,,,,,0,00,,,,,,,*7E
$GPVTG,,,,,,,,,N*30
$GPGGA,111250.0,,,,,0,00,,,,,,,*7E
$GPVTG,,,,,,,,,N*30
$GPGGA,111250.0,,,,,0,00,,,,,,,*7E
$GPVTG,,,,,,,,,N*30
$GPGGA,111250.0,,,,,0,00,,,,,,,*7E
$GPVTG,,,,,,,,,N*30
$GPGGA,111250.0,,,,,0,00,,,,,,,*7E
$GPVTG,,,,,,,,,N*30
$GPGGA,111250.0,,,,,0,00,,,,,,,*7E
$GPVTG,,,,,,,,,N*30
$GPGGA,111250.0,,,,,0,00,,,,,,,*7E
$GPVTG,,,,,,,,,N*30
$GPGGA,111250.0,,,,,0,00,,,,,,,*7E
$GPVTG,,,,,,,,,N*30
$GPGGA,111250.0,,,,,0,00,,,,,,,*7E
$GPVTG,,,,,,,,,N*30
$GPGGA,111250.0,,,,,0,00,,,,,,,*7E
$GPVTG,,,,,,,,,N*30
$GPGGA,111250.0,,,,,0,00,,,,,,,*7E
$GPVTG,,,,,,,,,N*30
$GPGGA,111250.0,,,,,0,00,,,,,,,*7E
$GPVTG,,,,,,,,,N*30
$GPGGA,111250.0,,,,,0,00,,,,,,,*7E
$GPVTG,,,,,,,,,N*30
$GPGGA,111250.0,,,,,0,00,,,,,,,*7E
$GPVTG,,,,,,,,,N*30
$GPGGA,111250.0,,,,,0,00,,,,,,,*7E
$GPVTG,,,,,,,,,N*30
$GPGGA,111250.0,,,,,0,00,,,,,,,*7E
$GPVTG,,,,,,,,,N*30
$GPGGA,111250.0,,,,,0,00,,,,,,,*7E
$GPVTG,,,,,,,,,N*30
$GPGGA,111250.0,,,,,0,00,,,,,,,*7E
$GPVTG,,,,,,,,,N*30
$GPGGA,111250.0,,,,,0,00,,,,,,,*7E
$GPVTG,,,,,,,,,N*30
$GPGGA,111250.0,,,,,0,00,,,,,,,*7E
$GPVTG,,,,,,,,,N*30
$GPGGA,111250.0,,,,,0,00,,,,,,,*7E
$GPVTG,,,,,,,,,N*30
$GPGGA,111250.0,,,,,0,00,,,,,,,*7E
$GPVTG,,,,,,,,,N*30
$GPGGA,111250.0,,,,,0,00,,,,,,,*7E
$GPVTG,,,,,,,,,N*30
$GPGGA,111250.0,,,,,0,00,,,,,,,*7E
$GPVTG,,,,,,,,,N*30
$GPGGA,111250.0,,,,,0,00,,,,,,,*7E
$GPVTG,,,,,,,,,N*30
$GPGGA,111250.0,,,,,0,00,,,,,,,*7E
$GPVTG,,,,,,,,,N*30
$GPGGA,111250.0,,,,,0,00,,,,,,,*7E
$GPVTG,,,,,,,,,N*30
$GPGGA,111250.0,,,,,0,00,,,,,,,*7E
$GPVTG,,,,,,,,,N*30
$GPGGA,111250.0,,,,,0,00,,,,,,,*7E
$GPVTG,,,,,,,,,N*30
$GPGGA,111250.0,,,,,0,00,,,,,,,*7E
$GPVTG,,,,,,,,,N*30
$GPGGA,111250.0,,,,,0,00,,,,,,,*7E
$GPVTG,,,,,,,,,N*30
$GPGGA,111250.0,,,,,0,00,,,,,,,*7E
$GPVTG,,,,,,,,,N*30
$GPGGA,111250.0,,,,,0,00,,,,,,,*7E
$GPVTG,,,,,,,,,N*30
$GPGGA,111250.0,,,,,0,00,,,,,,,*7E
$GPVTG,,,,,,,,,N*30
$GPGGA,111250.0,,,,,0,00,,,,,,,*7E
$GPVTG,,,,,,,,,N*30
$GPGGA,111250.0,,,,,0,00,,,,,,,*7E
$GPVTG,,,,,,,,,N*30
$GPGGA,111250.0,,,,,0,00,,,,,,,*7E
$GPVTG,,,,,,,,,N*30
$GPGGA,111250.0,,,,,0,00,,,,,,,*7E
$GPVTG,,,,,,,,,N*30
$GPGGA,111250.0,,,,,0,00,,,,,,,*7E
$GPVTG,,,,,,,,,N*30
$GPGGA,111250.0,,,,,0,00,,,,,,,*7E
$GPVTG,,,,,,,,,N*30
$GPGGA,111250.0,,,,,0,00,,,,,,,*7E
$GPVTG,,,,,,,,,N*30
$GPGGA,111250.0,,,,,0,00,,,,,,,*7E
$GPVTG,,,,,,,,,N*30
$GPGGA,111250.0,,,,,0,00,,,,,,,*7E
$GPVTG,,,,,,,,,N*30
$GPGGA,111250.0,,,,,0,00,,,,,,,*7E
$GPVTG,,,,,,,,,N*30
$GPGGA,111250.0,,,,,0,00,,,,,,,*7E
$GPVTG,,,,,,,,,N*30
$GPGGA,111250.0,,,,,0,00,,,,,,,*7E
$GPVTG,,,,,,,,,N*30
$GPGGA,111250.0,,,,,0,00,,,,,,,*7E
$GPVTG,,,,,,,,,N*30
$GPGGA,111250.0,,,,,0,00,,,,,,,*7E
$GPVTG,,,,,,,,,N*30
$GPGGA,111250.0,,,,,0,00,,,,,,,*7E
$GPVTG,,,,,,,,,N*30
$GPGGA,111250.0,,,,,0,00,,,,,,,*7E
$GPVTG,,,,,,,,,N*30
$GPGGA,111250.0,,,,,0,00,,,,,,,*7E
$GPVTG,,,,,,,,,N*30
$GPGGA,111250.0,,,,,0,00,,,,,,,*7E
$GPVTG,,,,,,,,,N*30
$GPGGA,111250.0,,,,,0,00,,,,,,,*7E
$GPVTG,,,,,,,,,N*30
$GPGGA,111250.0,,,,,0,00,,,,,,,*7E
$GPVTG,,,,,,,,,N*30
$GPGGA,111250.0,,,,,0,00,,,,,,,*7E
$GPVTG,,,,,,,,,N*30
$GPGGA,111250.0,,,,,0,00,,,,,,,*7E
$GPVTG,,,,,,,,,N*30
$GPGGA,111250.0,,,,,0,00,,,,,,,*7E
$GPVTG,,,,,,,,,N*30
$GPGGA,111250.0,,,,,0,00,,,,,,,*7E
$GPVTG,,,,,,,,,N*30
$GPGGA,111250.0,,,,,0,00,,,,,,,*7E
$GPVTG,,,,,,,,,N*30
$GPGGA,111250.0,,,,,0,00,,,,,,,*7E
$GPVTG,,,,,,,,,N*30
$GPGGA,111250.0,,,,,0,00,,,,,,,*7E
$GPVTG,,,,,,,,,N*30
$GPGGA,111250.0,,,,,0,00,,,,,,,*7E
$GPVTG,,,,,,,,,N*30
$GPGGA,111250.0,,,,,0,00,,,,,,,*7E
$GPVTG,,,,,,,,,N*30
$GPGGA,111250.0,,,,,0,00,,,,,,,*7E
$GPVTG,,,,,,,,,N*30
$GPGGA,111250.0,,,,,0,00,,,,,,,*7E
$GPVTG,,,,,,,,,N*30
$GPGGA,111250.0,,,,,0,00,,,,,,,*7E
$GPVTG,,,,,,,,,N*30
$GPGGA,111250.0,,,,,0,00,,,,,,,*7E
$GPVTG,,,,,,,,,N*30
$GPGGA,111250.0,,,,,0,01,,,,,,,*7F
$GPVTG,,,,,,,,,N*30
$GPGGA,111250.0,,,,,0,00,,,,,,,*7E
$GPVTG,,,,,,,,,N*30
$GPGGA,111250.0,,,,,0,01,,,,,,,*7F
$GPVTG,,,,,,,,,N*30
$GPGGA,111250.0,,,,,0,01,,,,,,,*7F
$GPVTG,,,,,,,,,N*30
$GPGGA,111250.0,,,,,0,01,,,,,,,*7F
$GPVTG,,,,,,,,,N*30
$GPGGA,111250.0,,,,,0,02,,,,,,,*7C
$GPVTG,,,,,,,,,N*30
$GPGGA,111250.0,,,,,0,02,,,,,,,*7C
$GPVTG,,,,,,,,,N*30
$GPGGA,114236.00,5212.8225,N,00006.0302,E,1,04,2.33,00025,M,047,M,,*63
$GPVTG,034.4,T,039.6,M,002.1,N,003.9,K,A*25
$GPGGA,114241.00,5212.8257,N,00006.0319,E,1,04,2.32,00025,M,047,M,,*6D
$GPVTG,018.3,T,023.5,M,002.8,N,005.1,K,A*23
$GPGGA,114243.00,5212.8271,N,00006.0323,E,1,05,1.53,00025,M,047,M,,*67
$GPVTG,005.9,T,011.1,M,000.9,N,001.6,K,A*20
$GPGGA,114247.00,5212.8285,N,00006.0311,E,1,05,1.53,00024,M,047,M,,*68
$GPVTG,035.8,T,041.0,M,000.4,N,000.7,K,A*2B
$GPGGA,114252.00,5212.8280,N,00006.0299,E,1,06,1.51,00021,M,047,M,,*6C
$GPVTG,000.0,T,005.2,M,000.0,N,000.0,K,A*24
$GPGGA,114257.00,5212.8270,N,00006.0277,E,1,05,1.74,00017,M,047,M,,*67
$GPVTG,056.3,T,061.5,M,001.6,N,003.0,K,A*25
$GPGGA,114259.00,5212.8272,N,00006.0284,E,1,05,1.74,00017,M,047,M,,*67
$GPVTG,168.8,T,174.0,M,000.0,N,000.0,K,A*26
$GPGGA,114303.00,5212.8260,N,00006.0266,E,1,06,1.51,00016,M,047,M,,*63
$GPVTG,000.0,T,005.2,M,000.0,N,000.0,K,A*24
$GPGGA,114308.00,5212.8259,N,00006.0266,E,1,04,2.71,00015,M,047,M,,*62
$GPVTG,000.0,T,005.2,M,000.0,N,000.0,K,A*24
$GPGGA,114313.00,5212.8261,N,00006.0269,E,1,05,1.73,00014,M,047,M,,*6D
$GPVTG,000.0,T,005.2,M,000.0,N,000.0,K,A*24
$GPGGA,114336.00,5212.8253,N,00006.0263,E,1,05,1.53,00014,M,047,M,,*63
$GPVTG,000.0,T,005.2,M,000.0,N,000.0,K,A*24
$GPGGA,114340.00,5212.8255,N,00006.0261,E,1,05,2.29,00014,M,047,M,,*68
$GPVTG,000.0,T,005.2,M,000.0,N,000.0,K,A*24
$GPGGA,114345.00,5212.8261,N,00006.0265,E,1,04,2.70,00015,M,047,M,,*62
$GPVTG,335.0,T,340.1,M,000.6,N,001.2,K,A*25
$GPGGA,114350.00,5212.8264,N,00006.0258,E,1,03,3.01,00014,M,047,M,,*6C
$GPVTG,000.0,T,005.2,M,000.0,N,000.0,K,A*24
$GPGGA,114352.00,5212.8261,N,00006.0256,E,1,04,2.64,00014,M,047,M,,*60
$GPVTG,000.0,T,005.2,M,000.0,N,000.0,K,A*24
$GPGGA,114356.00,5212.8259,N,00006.0255,E,1,04,2.64,00014,M,047,M,,*6C
$GPVTG,000.0,T,005.2,M,000.0,N,000.0,K,A*24
$GPGGA,114401.00,5212.8250,N,00006.0260,E,1,05,2.28,00017,M,047,M,,*6C
$GPVTG,000.0,T,005.2,M,000.0,N,000.0,K,A*24
$GPGGA,114405.0,,,,,0,02,,,,,,,*7F
$GPVTG,,,,,,,,,N*30
$GPGGA,114405.0,,,,,0,02,,,,,,,*7F
$GPVTG,,,,,,,,,N*30
$GPGGA,114405.0,,,,,0,01,,,,,,,*7C
$GPVTG,,,,,,,,,N*30
$GPGGA,114405.0,,,,,0,01,,,,,,,*7C
$GPVTG,,,,,,,,,N*30
$GPGGA,114421.00,5212.8112,N,00006.0265,E,1,04,2.62,00027,M,047,M,,*62
$GPVTG,000.0,T,005.2,M,000.0,N,000.0,K,A*24
$GPGGA,114423.00,5212.8120,N,00006.0264,E,1,04,2.62,00027,M,047,M,,*60
$GPVTG,000.0,T,005.2,M,000.0,N,000.0,K,A*24
$GPGGA,114427.00,5212.8148,N,00006.0263,E,1,04,2.61,00024,M,047,M,,*6D
$GPVTG,000.0,T,005.2,M,000.0,N,000.0,K,A*24
$GPGGA,114430.0,,,,,0,00,,,,,,,*7B
$GPVTG,,,,,,,,,N*30
$GPGGA,114436.00,5212.8231,N,00006.0275,E,1,05,2.26,00023,M,047,M,,*62
$GPVTG,000.0,T,005.2,M,000.0,N,000.0,K,A*24
$GPGGA,114438.00,5212.8234,N,00006.0268,E,1,05,2.26,00020,M,047,M,,*66
$GPVTG,000.0,T,005.2,M,000.0,N,000.0,K,A*24
$GPGGA,114442.00,5212.8240,N,00006.0259,E,1,05,2.26,00018,M,047,M,,*61
$GPVTG,,,,,,,,,N*30
$GPGGA,114447.00,5212.8240,N,00006.0259,E,1,04,2.60,00018,M,047,M,,*67
$GPVTG,212.4,T,217.6,M,002.3,N,004.2,K,A*23
$GPGGA,114452.00,5212.8278,N,00006.0256,E,1,05,1.53,00016,M,047,M,,*6B
$GPVTG,000.0,T,005.2,M,000.0,N,000.0,K,A*24
$GPGGA,114515.00,5212.8297,N,00006.0254,E,1,04,2.26,00009,M,047,M,,*64
$GPVTG,000.0,T,005.2,M,000.0,N,000.0,K,A*24
$GPGGA,114519.00,5212.8293,N,00006.0260,E,1,04,2.26,00011,M,047,M,,*62
$GPVTG,000.0,T,005.2,M,000.0,N,000.0,K,A*24
$GPGGA,114524.00,5212.8288,N,00006.0268,E,1,04,2.26,00012,M,047,M,,*6D
$GPVTG,000.0,T,005.2,M,000.0,N,000.0,K,A*24
$GPGGA,114529.00,5212.8287,N,00006.0272,E,1,03,2.93,00013,M,047,M,,*6C
$GPVTG,,,,,,,,,N*30
$GPGGA,114531.00,5212.8286,N,00006.0272,E,1,03,4.17,00013,M,047,M,,*6E
$GPVTG,000.0,T,005.2,M,000.0,N,000.0,K,A*24
$GPGGA,114535.00,5212.8286,N,00006.0273,E,1,05,1.53,00013,M,047,M,,*68
$GPVTG,000.0,T,005.2,M,000.0,N,000.0,K,A*24
$GPGGA,114540.00,5212.8286,N,00006.0274,E,1,06,1.52,00014,M,047,M,,*68
$GPVTG,000.0,T,005.2,M,000.0,N,000.0,K,A*24
$GPGGA,114545.00,5212.8286,N,00006.0274,E,1,06,1.52,00014,M,047,M,,*6D
$GPVTG,000.0,T,005.2,M,000.0,N,000.0,K,A*24
$GPGGA,114547.00,5212.8286,N,00006.0274,E,1,06,1.52,00014,M,047,M,,*6F
$GPVTG,000.0,T,005.2,M,000.0,N,000.0,K,A*24
$GPGGA,114551.00,5212.8285,N,00006.0274,E,1,04,2.54,00014,M,047,M,,*6C
$GPVTG,000.0,T,005.2,M,000.0,N,000.0,K,A*24
$GPGGA,114552.0,,,,,0,02,,,,,,,*7C
$GPVTG,,,,,,,,,N*30
$GPGGA,114552.0,,,,,0,02,,,,,,,*7C
$GPVTG,,,,,,,,,N*30
$GPGGA,114552.0,,,,,0,02,,,,,,,*7C
$GPVTG,,,,,,,,,N*30
$GPGGA,114607.00,5212.8283,N,00006.0273,E,1,03,3.02,00014,M,047,M,,*68
$GPVTG,000.0,T,005.2,M,000.0,N,000.0,K,A*24
$GPGGA,114612.00,5212.8279,N,00006.0271,E,1,05,1.71,00014,M,047,M,,*6B
$GPVTG,000.0,T,005.2,M,000.0,N,000.0,K,A*24
$GPGGA,114617.00,5212.8278,N,00006.0270,E,1,05,1.71,00014,M,047,M,,*6E
$GPVTG,000.0,T,005.2,M,000.0,N,000.0,K,A*24
$GPGGA,114619.00,5212.8277,N,00006.0271,E,1,05,1.71,00014,M,047,M,,*6E
$GPVTG,000.0,T,005.2,M,000.0,N,000.0,K,A*24
$GPGGA,114623.00,5212.8276,N,00006.0271,E,1,04,3.89,00015,M,047,M,,*63
$GPVTG,000.0,T,005.2,M,000.0,N,000.0,K,A*24
$GPGGA,114628.00,5212.8262,N,00006.0273,E,1,03,4.40,00015,M,047,M,,*6A
$GPVTG,000.0,T,005.2,M,000.0,N,000.0,K,A*24
$GPGGA,114633.00,5212.8258,N,00006.0272,E,1,05,2.22,00015,M,047,M,,*6C
$GPVTG,000.0,T,005.2,M,000.0,N,000.0,K,A*24
$GPGGA,114656.00,5212.8257,N,00006.0273,E,1,03,4.37,00015,M,047,M,,*65
$GPVTG,,,,,,,,,N*30
$GPGGA,114700.00,5212.8256,N,00006.0272,E,1,04,2.22,00015,M,047,M,,*62
$GPVTG,000.0,T,005.2,M,000.0,N,000.0,K,A*24
$GPGGA,114705.00,5212.8256,N,00006.0272,E,1,05,2.21,00015,M,047,M,,*65
$GPVTG,000.0,T,005.2,M,000.0,N,000.0,K,A*24
$GPGGA,114710.00,5212.8257,N,00006.0275,E,1,04,2.22,00015,M,047,M,,*65
$GPVTG,000.0,T,005.2,M,000.0,N,000.0,K,A*24
$GPGGA,114712.00,5212.8264,N,00006.0277,E,1,04,2.48,00015,M,047,M,,*69
$GPVTG,000.0,T,005.2,M,000.0,N,000.0,K,A*24
$GPGGA,114716.00,5212.8272,N,00006.0278,E,1,04,2.48,00014,M,047,M,,*64
$GPVTG,000.0,T,005.2,M,000.0,N,000.0,K,A*24
$GPGGA,114721.00,5212.8275,N,00006.0278,E,1,05,2.96,00013,M,047,M,,*62
$GPVTG,000.0,T,005.2,M,000.0,N,000.0,K,A*24
$GPGGA,114726.00,5212.8274,N,00006.0279,E,1,05,2.96,00013,M,047,M,,*65
$GPVTG,000.0,T,005.2,M,000.0,N,000.0,K,A*24
$GPGGA,114728.00,5212.8273,N,00006.0279,E,1,05,2.96,00014,M,047,M,,*6B
$GPVTG,000.0,T,005.2,M,000.0,N,000.0,K,A*24
$GPGGA,114732.00,5212.8270,N,00006.0278,E,1,05,2.96,00014,M,047,M,,*62
$GPVTG,000.0,T,005.2,M,000.0,N,000.0,K,A*24
$GPGGA,114737.00,5212.8267,N,00006.0278,E,1,05,2.96,00014,M,047,M,,*61
$GPVTG,000.0,T,005.2,M,000.0,N,000.0,K,A*24
$GPGGA,114742.00,5212.8281,N,00006.0265,E,1,05,2.89,00011,M,047,M,,*6C
$GPVTG,000.0,T,005.2,M,000.0,N,000.0,K,A*24
$GPGGA,114744.00,5212.8281,N,00006.0262,E,1,04,3.51,00010,M,047,M,,*69
$GPVTG,000.0,T,005.2,M,000.0,N,000.0,K,A*24
$GPGGA,114748.00,5212.8278,N,00006.0260,E,1,07,1.45,00010,M,047,M,,*65
$GPVTG,000.0,T,005.2,M,000.0,N,000.0,K,A*24
$GPGGA,114753.00,5212.8272,N,00006.0252,E,1,07,1.45,00008,M,047,M,,*6D
$GPVTG,000.0,T,005.2,M,000.0,N,000.0,K,A*24
$GPGGA,114758.00,5212.8268,N,00006.0250,E,1,03,2.07,00008,M,047,M,,*6E
$GPVTG,000.0,T,005.2,M,000.0,N,000.0,K,A*24
$GPGGA,114800.00,5212.8268,N,00006.0251,E,1,04,1.59,00008,M,047,M,,*62
$GPVTG,000.0,T,005.2,M,000.0,N,000.0,K,A*24
$GPGGA,114804.00,5212.8265,N,00006.0254,E,1,05,2.96,00009,M,047,M,,*6E
$GPVTG,,,,,,,,,N*30
$GPGGA,114809.00,5212.8264,N,00006.0256,E,1,04,3.64,00010,M,047,M,,*65
$GPVTG,000.0,T,005.2,M,000.0,N,000.0,K,A*24
$GPGGA,114814.00,5212.8266,N,00006.0257,E,1,03,2.66,00011,M,047,M,,*6F
$GPVTG,000.0,T,005.2,M,000.0,N,000.0,K,A*24
$GPGGA,114837.00,5212.8254,N,00006.0272,E,1,05,2.39,00015,M,047,M,,*60
$GPVTG,000.0,T,005.2,M,000.0,N,000.0,K,A*24
$GPGGA,114841.00,5212.8254,N,00006.0272,E,1,04,2.61,00016,M,047,M,,*6E
$GPVTG,000.0,T,005.2,M,000.0,N,000.0,K,A*24
$GPGGA,114846.00,5212.8255,N,00006.0272,E,1,05,2.39,00016,M,047,M,,*64
$GPVTG,000.0,T,005.2,M,000.0,N,000.0,K,A*24
$GPGGA,114851.00,5212.8258,N,00006.0269,E,1,06,2.11,00016,M,047,M,,*6C
$GPVTG,000.0,T,005.2,M,000.0,N,000.0,K,A*24
$GPGGA,114853.00,5212.8259,N,00006.0269,E,1,06,2.11,00016,M,047,M,,*6F
$GPVTG,000.0,T,005.2,M,000.0,N,000.0,K,A*24
$GPGGA,114842.00,5212.8258,N,00006.0270,E,1,04,3.53,00016,M,047,M,,*63
$GPVTG,000.0,T,005.2,M,000.0,N,000.0,K,A*24
$GPGGA,114847.00,5212.8259,N,00006.0269,E,1,05,2.38,00016,M,047,M,,*62
$GPVTG,000.0,T,005.2,M,000.0,N,000.0,K,A*24
$GPGGA,114852.00,5212.8252,N,00006.0270,E,1,05,2.38,00015,M,047,M,,*66
$GPVTG,000.0,T,005.2,M,000.0,N,000.0,K,A*24
$GPGGA,114854.00,5212.8250,N,00006.0271,E,1,05,2.38,00014,M,047,M,,*62
$GPVTG,000.0,T,005.2,M,000.0,N,000.0,K,A*24
$GPGGA,114858.00,5212.8245,N,00006.0274,E,1,05,2.38,00014,M,047,M,,*6F
$GPVTG,000.0,T,005.2,M,000.0,N,000.0,K,A*24
$GPGGA,114903.00,5212.8242,N,00006.0276,E,1,05,2.38,00013,M,047,M,,*62
$GPVTG,000.0,T,005.2,M,000.0,N,000.0,K,A*24
$GPGGA,114908.00,5212.8240,N,00006.0278,E,1,05,2.38,00013,M,047,M,,*65
$GPVTG,000.0,T,005.2,M,000.0,N,000.0,K,A*24
$GPGGA,114910.00,5212.8240,N,00006.0278,E,1,04,3.64,00013,M,047,M,,*65
$GPVTG,,,,,,,,,N*30
$GPGGA,114910.0,,,,,0,03,,,,,,,*77
$GPVTG,,,,,,,,,N*30
$GPGGA,114919.00,5212.8241,N,00006.0278,E,1,05,2.38,00013,M,047,M,,*64
$GPVTG,000.0,T,005.2,M,000.0,N,000.0,K,A*24
$GPGGA,114924.00,5212.8240,N,00006.0279,E,1,04,3.54,00013,M,047,M,,*60
$GPVTG,000.0,T,005.2,M,000.0,N,000.0,K,A*24
$GPGGA,114926.00,5212.8238,N,00006.0280,E,1,03,3.78,00012,M,047,M,,*63
$GPVTG,000.0,T,005.2,M,000.0,N,000.0,K,A*24
$GPGGA,114930.00,5212.8237,N,00006.0283,E,1,04,2.42,00012,M,047,M,,*67
$GPVTG,000.0,T,005.2,M,000.0,N,000.0,K,A*24
$GPGGA,114935.00,5212.8244,N,00006.0283,E,1,05,1.64,00015,M,047,M,,*67
$GPVTG,000.0,T,005.2,M,000.0,N,000.0,K,A*24
$GPGGA,114940.00,5212.8257,N,00006.0282,E,1,05,2.38,00020,M,047,M,,*6A
$GPVTG,000.0,T,005.2,M,000.0,N,000.0,K,A*24
$GPGGA,115003.00,5212.8266,N,00006.0289,E,1,07,1.46,00023,M,047,M,,*67
$GPVTG,000.0,T,005.2,M,000.0,N,000.0,K,A*24
$GPGGA,115007.00,5212.8265,N,00006.0293,E,1,05,2.16,00022,M,047,M,,*6E
$GPVTG,000.0,T,005.2,M,000.0,N,000.0,K,A*24
$GPGGA,115012.00,5212.8263,N,00006.0293,E,1,06,1.53,00021,M,047,M,,*6E
$GPVTG,000.0,T,005.2,M,000.0,N,000.0,K,A*24
$GPGGA,115017.00,5212.8263,N,00006.0294,E,1,05,2.16,00020,M,047,M,,*6C
$GPVTG,000.0,T,005.2,M,000.0,N,000.0,K,A*24
$GPGGA,115019.00,5212.8263,N,00006.0294,E,1,06,1.53,00020,M,047,M,,*63
$GPVTG,000.0,T,005.2,M,000.0,N,000.0,K,A*24
$GPGGA,115023.00,5212.8263,N,00006.0294,E,1,06,1.53,00020,M,047,M,,*6A
$GPVTG,000.0,T,005.2,M,000.0,N,000.0,K,A*24
$GPGGA,115028.00,5212.8263,N,00006.0294,E,1,05,1.71,00020,M,047,M,,*62
$GPVTG,000.0,T,005.2,M,000.0,N,000.0,K,A*24
$GPGGA,115033.00,5212.8262,N,00006.0294,E,1,06,1.58,00020,M,047,M,,*61
$GPVTG,000.0,T,005.2,M,000.0,N,000.0,K,A*24
$GPGGA,115035.00,5212.8262,N,00006.0294,E,1,07,1.46,00020,M,047,M,,*69
$GPVTG,000.0,T,005.2,M,000.0,N,000.0,K,A*24
$GPGGA,115039.00,5212.8262,N,00006.0294,E,1,07,1.46,00020,M,047,M,,*65
$GPVTG,000.0,T,005.2,M,000.0,N,000.0,K,A*24
$GPGGA,115044.00,5212.8262,N,00006.0294,E,1,06,1.53,00020,M,047,M,,*6A
$GPVTG,000.0,T,005.2,M,000.0,N,000.0,K,A*24
$GPGGA,115049.00,5212.8261,N,00006.0294,E,1,06,1.60,00019,M,047,M,,*6E
$GPVTG,000.0,T,005.2,M,000.0,N,000.0,K,A*24
$GPGGA,115051.00,5212.8261,N,00006.0294,E,1,05,1.67,00019,M,047,M,,*63
$GPVTG,000.0,T,005.2,M,000.0,N,000.0,K,A*24
$GPGGA,115055.00,5212.8260,N,00006.0294,E,1,07,1.46,00019,M,047,M,,*67
$GPVTG,000.0,T,005.2,M,000.0,N,000.0,K,A*24
